City,Lat,Lng,Max Temp,Humidity,Cloudiness,Wind Speed,Country,Date
Atuona,-9.8,-139.03,298.36,79,36,10.12,PF,1600377939
Taiyuan,37.87,112.56,281.15,87,0,0.96,CN,1600377939
Hithadhoo,-0.6,73.08,301.06,80,86,5.13,MV,1600377670
Qaanaaq,77.48,-69.36,266.67,84,51,4.4,GL,1600377939
Barrow,71.29,-156.79,281.15,87,90,3.1,US,1600377656
Nova Esperanca,4.44,-61.12,299.03,80,77,1.2,BR,1600378096
Mataura,-46.19,168.86,278.71,89,87,5.36,NZ,1600377947
Bhuban,20.88,85.83,299.54,89,100,0.35,IN,1600377940
Rikitea,-23.12,-134.97,295.21,82,99,10.12,PF,1600377878
Qaanaaq,77.48,-69.36,266.67,84,51,4.4,GL,1600377939
Lumsden,50.65,-104.87,293.15,37,75,1.5,CA,1600378042
Dorāha,30.82,76.02,300.22,53,0,0.57,IN,1600378097
Castro,-24.79,-50.01,290.35,78,100,3.77,BR,1600377975
Kisangani,0.52,25.2,294.67,90,100,0.92,CD,1600378097
Natal,-5.79,-35.21,299.15,74,20,6.7,BR,1600377942
Thompson,55.74,-97.86,282.15,36,40,5.7,CA,1600377942
Rikitea,-23.12,-134.97,295.21,82,99,10.12,PF,1600377878
Grindavik,63.84,-22.43,281.15,93,75,8.2,IS,1600377942
Ushuaia,-54.8,-68.3,275.15,64,75,18.5,AR,1600377661
Chifeng,42.27,118.96,283.13,58,0,4.7,CN,1600377943
Sitka,57.05,-135.33,289.15,59,1,1.71,US,1600377943
Muros,42.78,-9.06,290.37,94,94,0.45,ES,1600377943
Punta Arenas,-53.15,-70.92,278.15,60,40,15.4,CL,1600377732
Bathsheba,13.22,-59.52,302.15,70,40,2.1,BB,1600377879
São Filipe,14.9,-24.5,300.2,83,64,3.09,CV,1600377944
Tiksi,71.69,128.87,280.54,82,100,7.18,RU,1600377865
New Norfolk,-42.78,147.06,275.93,75,0,1.03,AU,1600377884
Yangi Marg`ilon,40.43,71.72,288.15,44,27,2.1,UZ,1600377944
Vaini,-21.2,-175.2,295.15,88,75,4.6,TO,1600377870
Monchique,37.32,-8.56,292.04,78,72,2.24,PT,1600377848
Donegal,54.65,-8.12,288.72,88,76,1.87,IE,1600377944
Bluff,-46.6,168.33,278.71,89,100,5.36,NZ,1600377945
Rikitea,-23.12,-134.97,295.21,82,99,10.12,PF,1600377878
Port Elizabeth,-33.92,25.57,284.15,93,0,2.38,ZA,1600377945
Rikitea,-23.12,-134.97,295.21,82,99,10.12,PF,1600377878
Ust-Maya,60.42,134.53,274.2,93,0,0.82,RU,1600377946
Atuona,-9.8,-139.03,298.36,79,36,10.12,PF,1600377939
Bethel,41.37,-73.41,295.37,56,1,1.5,US,1600377854
Celestún,20.87,-90.4,304.12,66,94,6.13,MX,1600377946
Kidal,18.44,1.41,304.09,43,95,0.19,ML,1600377946
New Norfolk,-42.78,147.06,275.93,75,0,1.03,AU,1600377884
Vaini,-21.2,-175.2,295.15,88,75,4.6,TO,1600377870
Mataura,-46.19,168.86,278.71,89,87,5.36,NZ,1600377947
Yulara,-25.24,130.99,284.15,81,55,2.1,AU,1600377947
Tegul'det,57.31,88.17,283.97,93,100,3.02,RU,1600377947
Lorengau,-2.02,147.27,301.05,79,77,4.05,PG,1600377948
Jamestown,42.1,-79.24,291.48,72,75,4.6,US,1600377827
Tura,25.52,90.22,296.43,98,100,1.66,IN,1600377948
Hamilton,39.18,-84.53,300.93,42,1,5.1,US,1600377869
Homer,59.64,-151.55,287.15,58,40,5.1,US,1600377948
Barrow,71.29,-156.79,281.15,87,90,3.1,US,1600377656
Korla,41.76,86.15,293.15,58,0,1.34,CN,1600377949
Nyurba,63.28,118.33,276.66,91,0,1.43,RU,1600377949
Lebu,-37.62,-73.65,284.65,80,65,5.68,CL,1600377903
Benguela,-12.58,13.41,294.78,81,91,1.5,AO,1600377949
Vestmannaeyjar,63.44,-20.27,283.49,82,88,8.08,IS,1600377950
Ushuaia,-54.8,-68.3,275.15,64,75,18.5,AR,1600377661
Hithadhoo,-0.6,73.08,301.06,80,86,5.13,MV,1600377670
Province of Mantua,45.17,10.78,295.93,70,87,3.2,IT,1600377950
Kidal,18.44,1.41,304.09,43,95,0.19,ML,1600377946
Larsnes,62.2,5.58,286.48,72,100,10.73,NO,1600377951
New Norfolk,-42.78,147.06,275.93,75,0,1.03,AU,1600377884
Bailén,38.1,-3.78,295.93,54,100,6.26,ES,1600377951
Jamestown,42.1,-79.24,291.48,72,75,4.6,US,1600377827
Mataura,-46.19,168.86,278.71,89,87,5.36,NZ,1600377947
Tuktoyaktuk,69.45,-133.04,281.15,87,75,1.0,CA,1600377873
Nouakchott,18.09,-15.98,302.15,79,75,6.2,MR,1600377952
Avera,33.19,-82.53,298.15,94,75,4.1,US,1600377952
Kavieng,-2.57,150.8,301.22,77,100,5.13,PG,1600377952
Mataura,-46.19,168.86,278.71,89,87,5.36,NZ,1600377947
Gebre Guracha,9.8,38.4,284.97,90,55,1.25,ET,1600377953
Hay River,60.82,-115.8,287.15,50,75,5.1,CA,1600377953
Soyo,-6.13,12.37,296.91,84,92,4.07,AO,1600377953
Saldanha,-33.01,17.94,284.15,87,0,1.5,ZA,1600377953
Barrow,71.29,-156.79,281.15,87,90,3.1,US,1600377656
Mar del Plata,-38.0,-57.56,293.15,57,9,4.6,AR,1600377868
Punta Arenas,-53.15,-70.92,278.15,60,40,15.4,CL,1600377732
San Juan de los Morros,9.91,-67.35,300.17,81,39,0.63,VE,1600377954
Cape Town,-33.93,18.42,285.93,93,24,1.5,ZA,1600377689
Camacupa,-12.02,17.48,293.6,59,98,0.93,AO,1600377954
Northam,51.03,-4.22,289.82,75,0,2.24,GB,1600377954
Yerbogachën,61.28,108.01,279.08,83,0,1.19,RU,1600377955
‘Ewa Beach,21.32,-158.01,304.15,45,40,2.6,US,1600377955
Ushuaia,-54.8,-68.3,275.15,64,75,18.5,AR,1600377661
Cidreira,-30.18,-50.21,289.89,86,14,2.76,BR,1600377955
East London,-33.02,27.91,289.34,67,2,3.41,ZA,1600377891
Bambous Virieux,-20.34,57.76,295.15,68,75,4.6,MU,1600377956
Port Macquarie,-31.43,152.92,290.93,86,21,5.12,AU,1600377956
Bredasdorp,-34.53,20.04,282.15,87,66,1.5,ZA,1600377912
Portland,45.52,-122.68,296.15,68,90,1.5,US,1600377712
Vaini,-21.2,-175.2,295.15,88,75,4.6,TO,1600377870
Port Macquarie,-31.43,152.92,290.93,86,21,5.12,AU,1600377956
Kichera,55.94,110.1,279.82,75,15,1.25,RU,1600377956
Kavaratti,10.57,72.64,300.81,80,92,9.2,IN,1600377957
Punta Arenas,-53.15,-70.92,278.15,60,40,15.4,CL,1600377732
Qaanaaq,77.48,-69.36,266.67,84,51,4.4,GL,1600377939
Nome,64.5,-165.41,284.15,62,90,6.7,US,1600377957
Ngunguru,-35.62,174.5,289.26,3,45,4.92,NZ,1600377957
Jacqueville,5.21,-4.41,298.15,94,75,3.1,CI,1600377958
Raudeberg,61.99,5.14,284.82,81,100,13.96,NO,1600377958
Cape Town,-33.93,18.42,285.93,93,24,1.5,ZA,1600377689
Zaysan,47.47,84.87,287.65,52,100,4.87,KZ,1600377958
Mossamedes,-15.2,12.15,289.92,76,0,3.33,AO,1600377958
Cape Town,-33.93,18.42,285.93,93,24,1.5,ZA,1600377689
Vaini,-21.2,-175.2,295.15,88,75,4.6,TO,1600377870
Punta Arenas,-53.15,-70.92,278.15,60,40,15.4,CL,1600377732
Shumyachi,53.86,32.42,281.55,86,39,6.1,RU,1600377959
Khatanga,71.97,102.5,280.7,82,7,3.12,RU,1600377959
Constitución,-35.33,-72.42,289.07,71,0,7.91,CL,1600377960
Cape Town,-33.93,18.42,285.93,93,24,1.5,ZA,1600377689
Sola,-13.88,167.55,299.95,85,93,10.8,VU,1600377955
Atar,20.52,-13.05,311.49,13,0,5.29,MR,1600377960
Buraidah,26.33,43.98,303.15,19,0,2.1,SA,1600377846
Moyale,3.52,39.06,295.09,57,6,2.57,KE,1600377960
Ushuaia,-54.8,-68.3,275.15,64,75,18.5,AR,1600377661
Deloraine,-41.53,146.67,280.37,87,90,0.7,AU,1600377961
Aklavik,68.22,-135.01,284.15,66,20,1.0,CA,1600377961
Severo-Kuril'sk,50.68,156.12,285.21,87,100,3.14,RU,1600377961
Hobart,-42.88,147.33,275.93,78,20,3.1,AU,1600377733
Noumea,-22.28,166.46,295.37,73,1,1.0,NC,1600377961
Puerto Ayora,-0.74,-90.35,297.15,64,20,9.8,EC,1600377962
Ushuaia,-54.8,-68.3,275.15,64,75,18.5,AR,1600377661
Cherskiy,68.75,161.3,274.74,95,100,1.98,RU,1600377962
Amazar,53.86,120.88,277.21,88,93,2.58,RU,1600377962
Faanui,-16.48,-151.75,299.22,76,51,9.44,PF,1600377962
Busselton,-33.65,115.33,282.04,53,0,4.8,AU,1600377893
Ushuaia,-54.8,-68.3,275.15,64,75,18.5,AR,1600377661
Arraial do Cabo,-22.97,-42.03,297.15,73,0,6.7,BR,1600377863
Busselton,-33.65,115.33,282.04,53,0,4.8,AU,1600377893
Vostok,46.49,135.88,281.56,100,36,1.65,RU,1600377963
Thompson,55.74,-97.86,282.15,36,40,5.7,CA,1600377942
Bluff,-46.6,168.33,278.71,89,100,5.36,NZ,1600377945
Atar,20.52,-13.05,311.49,13,0,5.29,MR,1600377960
Ossora,59.24,163.07,281.39,65,2,2.38,RU,1600377964
Chokurdakh,70.63,147.92,279.2,97,100,4.36,RU,1600377964
Mataura,-46.19,168.86,278.71,89,87,5.36,NZ,1600377947
Sharjah city,25.36,55.4,305.15,79,0,1.0,AE,1600377965
Provideniya,64.38,-173.3,282.15,70,75,4.0,RU,1600377965
Saskylakh,71.92,114.08,281.1,81,0,4.03,RU,1600377965
Noormarkku,61.59,21.87,280.15,81,85,3.6,FI,1600377966
Albany,42.6,-73.97,291.48,74,100,3.5,US,1600377966
Cleveland,41.5,-81.7,292.15,52,1,5.1,US,1600377645
Busselton,-33.65,115.33,282.04,53,0,4.8,AU,1600377893
Taksimo,56.34,114.88,278.55,76,49,0.87,RU,1600377966
Mataura,-46.19,168.86,278.71,89,87,5.36,NZ,1600377947
Klaksvík,62.23,-6.59,284.15,100,100,6.7,FO,1600377894
Goderich,43.75,-81.72,287.59,68,3,8.64,CA,1600377967
Khandyga,62.67,135.6,275.77,81,0,0.99,RU,1600377967
Mataura,-46.19,168.86,278.71,89,87,5.36,NZ,1600377947
Nikolskoye,59.7,30.79,282.15,81,90,8.0,RU,1600377967
Petropavlovsk-Kamchatskiy,53.05,158.65,283.15,93,100,2.0,RU,1600377825
Karasjok,69.47,25.51,281.15,65,100,15.9,NO,1600377968
Ilulissat,69.22,-51.1,275.15,69,80,3.1,GL,1600377868
Grenfell,-33.9,148.17,285.23,97,94,3.67,AU,1600377968
Ust'-Ordynskiy,52.8,104.75,277.15,100,3,3.0,RU,1600377968
Ushuaia,-54.8,-68.3,275.15,64,75,18.5,AR,1600377661
Mataura,-46.19,168.86,278.71,89,87,5.36,NZ,1600377947
Kuching,1.55,110.33,297.15,94,20,1.4,MY,1600377969
Busselton,-33.65,115.33,282.04,53,0,4.8,AU,1600377893
Ushuaia,-54.8,-68.3,275.15,64,75,18.5,AR,1600377661
Forsytheganj,52.63,29.73,282.12,75,5,5.44,BY,1600377969
Oyama,36.3,139.8,300.93,83,75,6.2,JP,1600377969
Umluj,25.02,37.27,304.01,51,0,2.85,SA,1600377970
Esperance,-33.87,121.9,283.15,100,90,2.6,AU,1600377970
Torbay,47.67,-52.73,290.93,82,75,11.8,CA,1600377970
Constantine,36.37,6.61,294.15,52,0,1.5,DZ,1600377970
Saint Paul Harbor,57.79,-152.41,286.15,62,90,9.8,US,1600377971
Ponta do Sol,32.67,-17.1,295.15,64,20,2.6,PT,1600377971
Walvis Bay,-22.96,14.51,285.37,87,0,3.6,NA,1600377971
Kailua,21.4,-157.74,304.15,54,40,5.7,US,1600377971
Esim,4.87,-2.24,297.13,88,55,3.47,GH,1600377971
Lahaina,20.88,-156.68,305.15,40,20,9.3,US,1600377688
Kaitangata,-46.28,169.85,280.37,55,76,3.58,NZ,1600377886
Baijiantan,45.63,85.18,292.59,37,99,16.1,CN,1600377972
Simbahan,6.3,120.58,301.9,75,100,4.9,PH,1600377972
Albany,42.6,-73.97,291.48,74,100,3.5,US,1600377966
Pangnirtung,66.15,-65.71,277.15,69,90,4.1,CA,1600377973
Dikson,73.51,80.55,280.29,92,100,5.67,RU,1600377874
Butaritari,3.07,172.79,301.04,77,59,7.31,KI,1600377866
Rikitea,-23.12,-134.97,295.21,82,99,10.12,PF,1600377878
Sotouboua,8.57,0.98,294.9,95,2,1.0,TG,1600377973
Punta Arenas,-53.15,-70.92,278.15,60,40,15.4,CL,1600377732
Rikitea,-23.12,-134.97,295.21,82,99,10.12,PF,1600377878
Linhares,-19.39,-40.07,296.05,64,0,3.93,BR,1600377974
Chara,56.91,118.26,277.91,75,53,2.38,RU,1600377970
Acapulco de Juárez,16.86,-99.89,303.15,79,90,2.6,MX,1600377945
Busselton,-33.65,115.33,282.04,53,0,4.8,AU,1600377893
Ribeira Grande,38.52,-28.7,295.15,78,75,5.1,PT,1600377974
Bluff,-46.6,168.33,278.71,89,100,5.36,NZ,1600377945
Avarua,-21.21,-159.78,297.15,60,100,4.6,CK,1600377974
Butaritari,3.07,172.79,301.04,77,59,7.31,KI,1600377866
Castro,-24.79,-50.01,290.35,78,100,3.77,BR,1600377975
Busselton,-33.65,115.33,282.04,53,0,4.8,AU,1600377893
Lavrentiya,65.58,-171.0,280.48,80,78,3.9,RU,1600377975
Luanda,-8.84,13.23,295.15,88,40,4.1,AO,1600377556
Puerto Madryn,-42.77,-65.04,287.72,32,50,17.72,AR,1600377976
Busselton,-33.65,115.33,282.04,53,0,4.8,AU,1600377893
Rikitea,-23.12,-134.97,295.21,82,99,10.12,PF,1600377878
Diamantino,-14.41,-56.45,309.12,17,73,2.23,BR,1600377976
Hambantota,6.12,81.12,298.15,100,76,2.6,LK,1600377976
Provideniya,64.38,-173.3,282.15,70,75,4.0,RU,1600377965
Albany,42.6,-73.97,291.48,74,100,3.5,US,1600377966
Lithgow,-33.48,150.15,281.48,93,100,1.7,AU,1600377977
Zhoucheng,35.91,116.31,287.68,64,0,1.74,CN,1600377977
Qaanaaq,77.48,-69.36,266.67,84,51,4.4,GL,1600377939
Corona,33.88,-117.57,311.48,10,1,3.1,US,1600377977
Batagay-Alyta,67.8,130.41,275.26,82,14,0.58,RU,1600377978
Evensk,61.95,159.23,278.92,65,0,3.85,RU,1600377978
Oloví,50.25,12.56,280.93,84,0,0.45,CZ,1600377978
Toppenish,46.38,-120.31,299.15,49,90,1.3,US,1600377978
Dawlatabad,36.41,64.91,286.67,48,0,0.82,AF,1600377978
Berlevåg,70.86,29.09,280.15,70,100,6.2,NO,1600377979
Ginir,7.13,40.7,290.49,69,1,1.61,ET,1600377979
Dikson,73.51,80.55,280.29,92,100,5.67,RU,1600377874
Hithadhoo,-0.6,73.08,301.06,80,86,5.13,MV,1600377670
Avarua,-21.21,-159.78,297.15,60,100,4.6,CK,1600377974
Katherine,-14.47,132.27,301.15,51,84,3.6,AU,1600377980
Saint George,37.1,-113.58,311.48,8,1,2.1,US,1600377867
Cape Town,-33.93,18.42,285.93,93,24,1.5,ZA,1600377689
Waipawa,-41.41,175.52,280.37,93,100,9.8,NZ,1600377980
Dingle,11.0,122.67,297.23,91,100,1.1,PH,1600377925
New Norfolk,-42.78,147.06,275.93,75,0,1.03,AU,1600377884
Yellowknife,62.46,-114.35,282.15,66,75,5.7,CA,1600377981
George Town,5.41,100.34,300.15,94,40,1.5,MY,1600377873
Casas Grandes,30.37,-107.95,301.48,26,6,2.68,MX,1600377981
Fortuna,40.6,-124.16,297.04,64,20,6.7,US,1600377981
Ushuaia,-54.8,-68.3,275.15,64,75,18.5,AR,1600377661
Punta Arenas,-53.15,-70.92,278.15,60,40,15.4,CL,1600377732
Bredasdorp,-34.53,20.04,282.15,87,66,1.5,ZA,1600377912
Emba,48.83,58.14,284.94,64,85,3.91,KZ,1600377982
Hermanus,-34.42,19.23,281.48,93,55,1.51,ZA,1600377982
Cape Town,-33.93,18.42,285.93,93,24,1.5,ZA,1600377689
Albany,42.6,-73.97,291.48,74,100,3.5,US,1600377966
Kruisfontein,-34.0,24.73,285.93,80,0,1.79,ZA,1600377982
Upernavik,72.79,-56.15,274.17,87,99,2.04,GL,1600377940
San Clemente,33.43,-117.61,309.82,34,9,3.68,US,1600377983
Vardø,70.37,31.11,279.15,81,100,8.2,NO,1600377691
Saint Paul Harbor,57.79,-152.41,286.15,62,90,9.8,US,1600377971
Punta Arenas,-53.15,-70.92,278.15,60,40,15.4,CL,1600377732
New Norfolk,-42.78,147.06,275.93,75,0,1.03,AU,1600377884
Nanortalik,60.14,-45.24,277.64,84,100,7.97,GL,1600377877
George Town,5.41,100.34,300.15,94,40,1.5,MY,1600377873
Hobart,-42.88,147.33,275.93,78,20,3.1,AU,1600377733
Kindu,-2.95,25.95,297.41,76,43,0.67,CD,1600377984
Vaini,-21.2,-175.2,295.15,88,75,4.6,TO,1600377870
Bandarbeyla,9.49,50.81,298.25,81,37,8.35,SO,1600377984
Agadez,19.75,10.25,306.61,17,9,1.79,NE,1600377985
Bengkulu,-3.8,102.27,296.69,87,79,1.68,ID,1600377860
Cascavel,-24.96,-53.46,289.95,87,100,2.21,BR,1600377724
Vaini,-21.2,-175.2,295.15,88,75,4.6,TO,1600377870
Dikson,73.51,80.55,280.29,92,100,5.67,RU,1600377874
Toledo,39.83,-4.0,297.59,50,100,5.6,ES,1600377863
Mataura,-46.19,168.86,278.71,89,87,5.36,NZ,1600377947
Atuona,-9.8,-139.03,298.36,79,36,10.12,PF,1600377939
Iringa,-7.77,35.7,288.39,71,0,4.04,TZ,1600377986
Ribeira Grande,38.52,-28.7,295.15,78,75,5.1,PT,1600377974
Souillac,-20.52,57.52,295.15,68,75,4.6,MU,1600377986
Ambilobe,-13.2,49.05,293.84,73,27,2.18,MG,1600377987
Hobart,-42.88,147.33,275.93,78,20,3.1,AU,1600377733
Lompoc,34.64,-120.46,299.26,60,1,6.7,US,1600377865
Myanaung,18.28,95.32,298.27,90,100,1.23,MM,1600377987
Tuktoyaktuk,69.45,-133.04,281.15,87,75,1.0,CA,1600377873
Busselton,-33.65,115.33,282.04,53,0,4.8,AU,1600377893
Avarua,-21.21,-159.78,297.15,60,100,4.6,CK,1600377974
Te Anau,-45.42,167.72,277.53,89,99,3.5,NZ,1600377988
Sidhi,24.42,81.88,300.27,71,81,2.05,IN,1600377864
Trairi,-3.28,-39.27,298.99,74,0,5.06,BR,1600377988
Ponta do Sol,32.67,-17.1,295.15,64,20,2.6,PT,1600377971
Rikitea,-23.12,-134.97,295.21,82,99,10.12,PF,1600377878
Saint-Philippe,-21.36,55.77,294.15,60,49,3.6,RE,1600377988
Mar del Plata,-38.0,-57.56,293.15,57,9,4.6,AR,1600377868
Vaini,-21.2,-175.2,295.15,88,75,4.6,TO,1600377870
Hermanus,-34.42,19.23,281.48,93,55,1.51,ZA,1600377982
Hilo,19.73,-155.09,302.15,62,90,3.6,US,1600377785
Coyhaique,-45.58,-72.07,280.15,56,75,3.6,CL,1600377989
Constitución,-35.33,-72.42,289.07,71,0,7.91,CL,1600377960
Ushuaia,-54.8,-68.3,275.15,64,75,18.5,AR,1600377661
College,64.86,-147.8,288.15,47,75,4.6,US,1600377800
Hobyo,5.35,48.53,298.23,86,17,9.72,SO,1600377990
Berlevåg,70.86,29.09,280.15,70,100,6.2,NO,1600377979
Ushuaia,-54.8,-68.3,275.15,64,75,18.5,AR,1600377661
Port Alfred,-33.59,26.89,288.15,73,32,2.94,ZA,1600377990
Gizo Government Station,-8.1,156.84,300.92,76,100,5.6,SB,1600377990
Punta Arenas,-53.15,-70.92,278.15,60,40,15.4,CL,1600377732
Hermanus,-34.42,19.23,281.48,93,55,1.51,ZA,1600377982
Guider,9.93,13.95,297.26,85,52,0.8,CM,1600377991
Dandong,40.13,124.39,284.67,70,0,1.25,CN,1600377991
Raymondville,26.48,-97.78,301.15,88,90,2.1,US,1600377991
Gerāsh,27.67,54.14,299.15,21,0,0.98,IR,1600377992
Pacific Grove,36.62,-121.92,297.59,82,40,3.1,US,1600377992
Carberry,49.87,-99.36,283.15,31,90,2.6,CA,1600377992
Cape Town,-33.93,18.42,285.93,93,24,1.5,ZA,1600377689
Hilo,19.73,-155.09,302.15,62,90,3.6,US,1600377785
Torbay,47.67,-52.73,290.93,82,75,11.8,CA,1600377970
Lebu,-37.62,-73.65,284.65,80,65,5.68,CL,1600377903
Punta Arenas,-53.15,-70.92,278.15,60,40,15.4,CL,1600377732
Esperance,-33.87,121.9,283.15,100,90,2.6,AU,1600377970
Guarapari,-20.67,-40.5,298.71,73,0,8.2,BR,1600377993
New Norfolk,-42.78,147.06,275.93,75,0,1.03,AU,1600377884
Hyères,43.12,6.12,297.04,88,3,1.0,FR,1600377993
Muravlenko,63.79,74.52,281.69,93,100,9.14,RU,1600377994
Ushuaia,-54.8,-68.3,275.15,64,75,18.5,AR,1600377661
Saint Paul Harbor,57.79,-152.41,286.15,62,90,9.8,US,1600377971
Aklavik,68.22,-135.01,284.15,66,20,1.0,CA,1600377961
Hermanus,-34.42,19.23,281.48,93,55,1.51,ZA,1600377982
Mar del Plata,-38.0,-57.56,293.15,57,9,4.6,AR,1600377868
Hong Kong,22.29,114.16,300.93,88,100,9.33,HK,1600377994
Castro,-24.79,-50.01,290.35,78,100,3.77,BR,1600377975
Krasnosel'kup,65.7,82.47,280.34,90,0,4.82,RU,1600377995
Pevek,69.7,170.31,274.45,89,99,3.73,RU,1600377995
Yellowknife,62.46,-114.35,282.15,66,75,5.7,CA,1600377981
Khani,41.96,42.96,296.15,56,37,6.2,GE,1600377995
Butaritari,3.07,172.79,301.04,77,59,7.31,KI,1600377866
Punta Arenas,-53.15,-70.92,278.15,60,40,15.4,CL,1600377732
Leningradskiy,69.38,178.42,273.94,94,100,7.02,RU,1600377996
Castro,-24.79,-50.01,290.35,78,100,3.77,BR,1600377975
Northam,51.03,-4.22,289.82,75,0,2.24,GB,1600377954
Rikitea,-23.12,-134.97,295.21,82,99,10.12,PF,1600377878
Tefé,-3.35,-64.71,306.15,59,20,2.1,BR,1600377997
Mataura,-46.19,168.86,278.71,89,87,5.36,NZ,1600377947
Busselton,-33.65,115.33,282.04,53,0,4.8,AU,1600377893
Mount Gambier,-37.83,140.77,283.15,87,90,5.1,AU,1600377822
Tuktoyaktuk,69.45,-133.04,281.15,87,75,1.0,CA,1600377873
Cidreira,-30.18,-50.21,289.89,86,14,2.76,BR,1600377955
Narsaq,60.92,-46.05,279.15,70,75,2.6,GL,1600377781
Butaritari,3.07,172.79,301.04,77,59,7.31,KI,1600377866
Port Alfred,-33.59,26.89,288.15,73,32,2.94,ZA,1600377990
Nālūt,30.33,10.85,296.72,23,0,2.17,LY,1600377998
Rikitea,-23.12,-134.97,295.21,82,99,10.12,PF,1600377878
Dakar,14.69,-17.44,302.15,79,75,5.1,SN,1600377537
Hobart,-42.88,147.33,275.93,78,20,3.1,AU,1600377733
Sisimiut,66.94,-53.67,276.84,74,68,3.75,GL,1600377829
Hong Kong,22.29,114.16,300.93,88,100,9.33,HK,1600377994
Albany,42.6,-73.97,291.48,74,100,3.5,US,1600377966
Saint-Philippe,-21.36,55.77,294.15,60,49,3.6,RE,1600377988
Mataura,-46.19,168.86,278.71,89,87,5.36,NZ,1600377947
Ostrovnoy,68.05,39.51,278.84,87,0,3.33,RU,1600377999
Barrow,71.29,-156.79,281.15,87,90,3.1,US,1600377656
Arraial do Cabo,-22.97,-42.03,297.15,73,0,6.7,BR,1600377863
Sørland,67.67,12.69,282.15,81,75,11.3,NO,1600377999
Punta Arenas,-53.15,-70.92,278.15,60,40,15.4,CL,1600377732
Bethel,41.37,-73.41,295.37,56,1,1.5,US,1600377854
Qaanaaq,77.48,-69.36,266.67,84,51,4.4,GL,1600377939
Bredasdorp,-34.53,20.04,282.15,87,66,1.5,ZA,1600377912
Atuona,-9.8,-139.03,298.36,79,36,10.12,PF,1600377939
Hermanus,-34.42,19.23,281.48,93,55,1.51,ZA,1600377982
Hilo,19.73,-155.09,302.15,62,90,3.6,US,1600377785
Atuona,-9.8,-139.03,298.36,79,36,10.12,PF,1600377939
Souillac,-20.52,57.52,295.15,68,75,4.6,MU,1600377986
Gmina Jędrzejów,50.64,20.3,284.82,72,5,1.34,PL,1600378000
Bethel,41.37,-73.41,295.37,56,1,1.5,US,1600377854
Christchurch,-43.53,172.63,282.59,75,57,1.5,NZ,1600377931
Tual,-5.67,132.75,299.59,86,100,5.32,ID,1600378001
Lompoc,34.64,-120.46,299.26,60,1,6.7,US,1600377865
Palkino,57.54,28.01,281.15,87,100,9.0,RU,1600378001
Upernavik,72.79,-56.15,274.17,87,99,2.04,GL,1600377940
Avarua,-21.21,-159.78,297.15,60,100,4.6,CK,1600377974
Albany,42.6,-73.97,291.48,74,100,3.5,US,1600377966
Kamenka,51.32,42.77,288.71,34,2,7.29,RU,1600378002
Tuktoyaktuk,69.45,-133.04,281.15,87,75,1.0,CA,1600377873
Punta Arenas,-53.15,-70.92,278.15,60,40,15.4,CL,1600377732
Albany,42.6,-73.97,291.48,74,100,3.5,US,1600377966
Nisibis,37.08,41.22,298.15,23,0,4.1,TR,1600378003
Poum,-20.23,164.02,295.27,75,0,3.78,NC,1600378003
Hilo,19.73,-155.09,302.15,62,90,3.6,US,1600377785
Ponta Delgada,37.73,-25.67,291.15,82,20,2.6,PT,1600378003
San Quintín,30.48,-115.95,305.41,25,16,8.06,MX,1600377951
Porbandar,21.64,69.61,300.84,80,100,4.13,IN,1600377757
Black River,18.03,-77.85,303.71,79,40,1.5,JM,1600378004
Letlhakane,-21.42,25.58,298.17,39,64,8.04,BW,1600378004
Jamestown,42.1,-79.24,291.48,72,75,4.6,US,1600377827
Albany,42.6,-73.97,291.48,74,100,3.5,US,1600377966
Port Elizabeth,-33.92,25.57,284.15,93,0,2.38,ZA,1600377945
Vila Velha,-20.33,-40.29,298.71,73,0,8.2,BR,1600378005
Charters Towers,-20.1,146.27,292.49,84,91,5.94,AU,1600378005
Castro,-24.79,-50.01,290.35,78,100,3.77,BR,1600377975
Cape Town,-33.93,18.42,285.93,93,24,1.5,ZA,1600377689
Fortuna,40.6,-124.16,297.04,64,20,6.7,US,1600377981
San Quintín,30.48,-115.95,305.41,25,16,8.06,MX,1600377951
Tuktoyaktuk,69.45,-133.04,281.15,87,75,1.0,CA,1600377873
Bluff,-46.6,168.33,278.71,89,100,5.36,NZ,1600377945
Plouzané,48.38,-4.62,290.15,82,7,7.7,FR,1600377829
Mandalgovi,45.76,106.27,279.55,63,0,0.16,MN,1600378006
Vila Velha,-20.33,-40.29,298.71,73,0,8.2,BR,1600378005
Agirish,61.92,63.02,278.1,80,71,3.95,RU,1600378006
Carnarvon,-24.87,113.63,288.15,38,0,4.6,AU,1600377944
Ushuaia,-54.8,-68.3,275.15,64,75,18.5,AR,1600377661
Albany,42.6,-73.97,291.48,74,100,3.5,US,1600377966
Muroto-misakicho,33.28,134.15,300.15,94,75,4.6,JP,1600378007
Makakilo City,21.35,-158.09,304.15,45,40,2.6,US,1600377956
Albany,42.6,-73.97,291.48,74,100,3.5,US,1600377966
Nemyriv,48.97,28.84,287.59,68,50,4.93,UA,1600378008
Tuktoyaktuk,69.45,-133.04,281.15,87,75,1.0,CA,1600377873
Laas,46.62,10.7,288.15,82,5,1.0,IT,1600378008
Kruisfontein,-34.0,24.73,285.93,80,0,1.79,ZA,1600377982
Ambilobe,-13.2,49.05,293.84,73,27,2.18,MG,1600377987
San Rafael,-34.62,-68.33,302.63,12,29,2.09,AR,1600378008
Escuinapa,22.85,-105.8,303.15,74,75,1.5,MX,1600378009
Hobart,-42.88,147.33,275.93,78,20,3.1,AU,1600377733
Lebu,-37.62,-73.65,284.65,80,65,5.68,CL,1600377903
Ambositra,-20.52,47.25,284.06,90,2,0.1,MG,1600378009
Makakilo City,21.35,-158.09,304.15,45,40,2.6,US,1600377956
Barra do Corda,-5.5,-45.25,306.37,26,3,1.35,BR,1600377915
Lüderitz,-26.65,15.16,287.93,70,0,5.45,NA,1600377876
Kahului,20.89,-156.47,305.15,46,20,10.3,US,1600377979
Zeya,53.75,127.27,282.37,87,100,3.32,RU,1600378010
Saint-Philippe,-21.36,55.77,294.15,60,49,3.6,RE,1600377988
Mount Isa,-20.73,139.5,292.15,52,0,7.0,AU,1600377961
Fairbanks,64.84,-147.72,288.15,44,1,5.1,US,1600378010
Lüderitz,-26.65,15.16,287.93,70,0,5.45,NA,1600377876
Chokurdakh,70.63,147.92,279.2,97,100,4.36,RU,1600377964
Mataura,-46.19,168.86,278.71,89,87,5.36,NZ,1600377947
Charters Towers,-20.1,146.27,292.49,84,91,5.94,AU,1600378005
Tuktoyaktuk,69.45,-133.04,281.15,87,75,1.0,CA,1600377873
Gigmoto,13.78,124.39,299.65,82,100,2.51,PH,1600378012
Saint-Philippe,-21.36,55.77,294.15,60,49,3.6,RE,1600377988
Mersing,2.43,103.84,297.15,94,93,2.6,MY,1600378012
Puerto Ayora,-0.74,-90.35,297.15,64,20,9.8,EC,1600377962
Ulaanbaatar,47.91,106.88,271.15,92,0,1.0,MN,1600378012
Carlos Chagas,-17.7,-40.77,299.56,46,0,4.25,BR,1600378012
Vaini,-21.2,-175.2,295.15,88,75,4.6,TO,1600377870
Puerto Ayora,-0.74,-90.35,297.15,64,20,9.8,EC,1600377962
Port Hedland,-20.32,118.57,293.15,38,16,3.6,AU,1600378013
Albany,42.6,-73.97,291.48,74,100,3.5,US,1600377966
Sompeta,18.93,84.6,300.64,83,67,3.09,IN,1600378013
Punta Arenas,-53.15,-70.92,278.15,60,40,15.4,CL,1600377732
İmamoğlu,37.27,35.66,300.93,83,20,1.5,TR,1600378014
Kloulklubed,7.04,134.26,298.15,94,75,2.26,PW,1600378014
Katsuura,35.13,140.3,300.93,86,98,5.36,JP,1600378014
Arman',59.7,150.17,279.43,67,0,3.21,RU,1600378014
Sitka,57.05,-135.33,289.15,59,1,1.71,US,1600377943
Albany,42.6,-73.97,291.48,74,100,3.5,US,1600377966
Wanning,18.8,110.4,301.26,87,100,7.2,CN,1600378015
Mataura,-46.19,168.86,278.71,89,87,5.36,NZ,1600377947
Flinders,-34.58,150.86,288.15,86,98,1.79,AU,1600378015
Mar del Plata,-38.0,-57.56,293.15,57,9,4.6,AR,1600377868
Zhigansk,66.77,123.37,275.99,80,9,0.27,RU,1600378015
Punta Arenas,-53.15,-70.92,278.15,60,40,15.4,CL,1600377732
Ushuaia,-54.8,-68.3,275.15,64,75,18.5,AR,1600377661
Mariinskiy Posad,56.12,47.72,284.15,62,40,5.0,RU,1600378016
Albany,42.6,-73.97,291.48,74,100,3.5,US,1600377966
Pokhara,28.23,83.98,294.65,80,87,0.93,NP,1600378016
Bethel,41.37,-73.41,295.37,56,1,1.5,US,1600377854
Caravelas,-17.71,-39.25,295.58,72,0,2.98,BR,1600378017
Rikitea,-23.12,-134.97,295.21,82,99,10.12,PF,1600377878
Caravelas,-17.71,-39.25,295.58,72,0,2.98,BR,1600378017
Mataura,-46.19,168.86,278.71,89,87,5.36,NZ,1600377947
Saint-Philippe,-21.36,55.77,294.15,60,49,3.6,RE,1600377988
Ushuaia,-54.8,-68.3,275.15,64,75,18.5,AR,1600377661
Rikitea,-23.12,-134.97,295.21,82,99,10.12,PF,1600377878
Rikitea,-23.12,-134.97,295.21,82,99,10.12,PF,1600377878
Bethel,41.37,-73.41,295.37,56,1,1.5,US,1600377854
Limenaria,40.63,24.58,297.59,82,98,3.75,GR,1600378018
Vaini,-21.2,-175.2,295.15,88,75,4.6,TO,1600377870
Hithadhoo,-0.6,73.08,301.06,80,86,5.13,MV,1600377670
Vaini,-21.2,-175.2,295.15,88,75,4.6,TO,1600377870
Ushuaia,-54.8,-68.3,275.15,64,75,18.5,AR,1600377661
Caucayá,-0.19,-74.78,303.95,62,91,1.0,CO,1600378019
Carnarvon,-24.87,113.63,288.15,38,0,4.6,AU,1600377944
Kapaa,22.08,-159.32,304.15,58,40,5.7,US,1600378019
Vardø,70.37,31.11,279.15,81,100,8.2,NO,1600377691
Hobart,-42.88,147.33,275.93,78,20,3.1,AU,1600377733
East London,-33.02,27.91,289.34,67,2,3.41,ZA,1600377891
Albany,42.6,-73.97,291.48,74,100,3.5,US,1600377966
Castro,-24.79,-50.01,290.35,78,100,3.77,BR,1600377975
Kiryat Gat,31.61,34.76,300.93,79,0,1.48,IL,1600377975
Saint George,37.1,-113.58,311.48,8,1,2.1,US,1600377867
Broome,42.25,-75.83,290.93,93,90,4.1,US,1600378007
Narsaq,60.92,-46.05,279.15,70,75,2.6,GL,1600377781
Barrow,71.29,-156.79,281.15,87,90,3.1,US,1600377656
Padang,-0.95,100.35,297.9,77,100,1.21,ID,1600378021
Rikitea,-23.12,-134.97,295.21,82,99,10.12,PF,1600377878
Visnes,59.36,5.22,284.26,87,39,2.1,NO,1600378021
Rikitea,-23.12,-134.97,295.21,82,99,10.12,PF,1600377878
Port Elizabeth,-33.92,25.57,284.15,93,0,2.38,ZA,1600377945
Okhotsk,59.38,143.3,281.26,62,0,2.7,RU,1600378021
Varkaus,62.32,27.87,280.15,87,75,6.7,FI,1600378022
Shihezi,44.3,86.03,291.26,36,22,5.93,CN,1600378022
Khasan,42.43,130.64,287.97,75,100,2.14,RU,1600378022
Kieta,-6.22,155.63,299.22,85,100,4.52,PG,1600378022
Albany,42.6,-73.97,291.48,74,100,3.5,US,1600377966
Cape Town,-33.93,18.42,285.93,93,24,1.5,ZA,1600377689
Dikson,73.51,80.55,280.29,92,100,5.67,RU,1600377874
Torbay,47.67,-52.73,290.93,82,75,11.8,CA,1600377970
Amahai,-3.33,128.92,298.0,82,100,0.92,ID,1600378023
Karymskoye,51.62,114.35,277.32,86,11,1.22,RU,1600378023
Ulagan,50.63,87.96,280.85,58,84,1.28,RU,1600378024
Cayenne,4.93,-52.33,302.15,74,0,4.6,GF,1600378024
Cape Town,-33.93,18.42,285.93,93,24,1.5,ZA,1600377689
Wexford,52.33,-6.46,291.48,77,0,5.58,IE,1600378024
Lebu,-37.62,-73.65,284.65,80,65,5.68,CL,1600377903
Arraial do Cabo,-22.97,-42.03,297.15,73,0,6.7,BR,1600377863
Esperance,-33.87,121.9,283.15,100,90,2.6,AU,1600377970
Kruisfontein,-34.0,24.73,285.93,80,0,1.79,ZA,1600377982
Woodstock,43.13,-80.75,292.15,48,20,4.1,CA,1600377833
Kuršumlija,43.15,21.27,294.15,49,8,4.1,RS,1600378025
Carutapera,-1.2,-46.02,300.05,75,54,4.29,BR,1600378025
Chokurdakh,70.63,147.92,279.2,97,100,4.36,RU,1600377964
Qaanaaq,77.48,-69.36,266.67,84,51,4.4,GL,1600377939
Necochea,-38.55,-58.74,291.48,37,77,1.34,AR,1600377968
Rayong,12.83,101.43,301.48,91,100,3.21,TH,1600378026
Qaanaaq,77.48,-69.36,266.67,84,51,4.4,GL,1600377939
East London,-33.02,27.91,289.34,67,2,3.41,ZA,1600377891
Ribeira Grande,38.52,-28.7,295.15,78,75,5.1,PT,1600377974
Busselton,-33.65,115.33,282.04,53,0,4.8,AU,1600377893
Bluff,-46.6,168.33,278.71,89,100,5.36,NZ,1600377945
Kloulklubed,7.04,134.26,298.15,94,75,2.26,PW,1600378014
Sittwe,20.15,92.9,300.76,82,100,1.04,MM,1600378027
Mangalore,12.87,74.88,297.15,88,90,2.84,IN,1600377971
Ceres,37.59,-120.96,304.15,35,1,2.6,US,1600378027
Atuona,-9.8,-139.03,298.36,79,36,10.12,PF,1600377939
Puerto Ayora,-0.74,-90.35,297.15,64,20,9.8,EC,1600377962
Zyryanka,65.75,150.85,277.48,87,86,2.07,RU,1600378028
North Platte,41.12,-100.77,299.26,44,1,4.1,US,1600378028
Dwārka,22.24,68.97,301.24,83,91,5.09,IN,1600378028
Pevek,69.7,170.31,274.45,89,99,3.73,RU,1600377995
Ushuaia,-54.8,-68.3,275.15,64,75,18.5,AR,1600377661
General Cepeda,25.38,-101.45,297.15,47,40,5.1,MX,1600378029
Dikson,73.51,80.55,280.29,92,100,5.67,RU,1600377874
Ushuaia,-54.8,-68.3,275.15,64,75,18.5,AR,1600377661
Vila Velha,-20.33,-40.29,298.71,73,0,8.2,BR,1600378005
Mataura,-46.19,168.86,278.71,89,87,5.36,NZ,1600377947
Laramie,41.31,-105.59,297.15,12,1,4.6,US,1600377877
Dikson,73.51,80.55,280.29,92,100,5.67,RU,1600377874
Souillac,-20.52,57.52,295.15,68,75,4.6,MU,1600377986
Rikitea,-23.12,-134.97,295.21,82,99,10.12,PF,1600377878
Verkhnevilyuysk,63.45,120.32,276.48,92,0,0.93,RU,1600378031
Barrow,71.29,-156.79,281.15,87,90,3.1,US,1600377656
Avarua,-21.21,-159.78,297.15,60,100,4.6,CK,1600377974
Butaritari,3.07,172.79,301.04,77,59,7.31,KI,1600377866
Moerai,-22.43,-151.33,296.52,83,3,1.61,PF,1600377787
Severo-Kuril'sk,50.68,156.12,285.21,87,100,3.14,RU,1600377961
Longyearbyen,78.22,15.64,277.15,80,75,4.6,SJ,1600378032
Bahía Solano,6.23,-77.4,299.84,78,100,4.02,CO,1600378032
San Francisco Menéndez,13.84,-90.02,304.15,48,20,2.1,SV,1600378032
Bluff,-46.6,168.33,278.71,89,100,5.36,NZ,1600377945
Albany,42.6,-73.97,291.48,74,100,3.5,US,1600377966
Rikitea,-23.12,-134.97,295.21,82,99,10.12,PF,1600377878
Bluff,-46.6,168.33,278.71,89,100,5.36,NZ,1600377945
Kaitangata,-46.28,169.85,280.37,55,76,3.58,NZ,1600377886
Waddān,29.16,16.14,298.86,30,0,2.75,LY,1600378033
Ribeira Grande,38.52,-28.7,295.15,78,75,5.1,PT,1600377974
Sinnamary,5.38,-52.95,300.65,81,8,5.64,GF,1600378033
Ushuaia,-54.8,-68.3,275.15,64,75,18.5,AR,1600377661
Arman',59.7,150.17,279.43,67,0,3.21,RU,1600378014
Opuwo,-18.06,13.84,291.07,29,0,3.24,NA,1600378034
Rikitea,-23.12,-134.97,295.21,82,99,10.12,PF,1600377878
Provideniya,64.38,-173.3,282.15,70,75,4.0,RU,1600377965
Evensk,61.95,159.23,278.92,65,0,3.85,RU,1600377978
Albany,42.6,-73.97,291.48,74,100,3.5,US,1600377966
Quatre Cocos,-20.21,57.76,295.15,68,75,4.6,MU,1600378034
Busselton,-33.65,115.33,282.04,53,0,4.8,AU,1600377893
Hong Kong,22.29,114.16,300.93,88,100,9.33,HK,1600377994
Nome,64.5,-165.41,284.15,62,90,6.7,US,1600377957
Laas,46.62,10.7,288.15,82,5,1.0,IT,1600378008
Beïnamar,8.67,15.38,295.02,95,78,1.5,TD,1600377964
São Filipe,14.9,-24.5,300.2,83,64,3.09,CV,1600377944
Bayburt,40.26,40.23,288.34,34,0,0.73,TR,1600378035
Bambous Virieux,-20.34,57.76,295.15,68,75,4.6,MU,1600377956
Sundsvall,62.39,17.31,280.37,93,100,1.0,SE,1600378036
Orlik,52.52,99.83,277.44,70,0,0.83,RU,1600378036
Tuktoyaktuk,69.45,-133.04,281.15,87,75,1.0,CA,1600377873
Jalu,29.03,21.55,299.37,59,0,6.84,LY,1600378036
Monrovia,6.3,-10.8,299.15,94,75,5.13,LR,1600378036
Lorengau,-2.02,147.27,301.05,79,77,4.05,PG,1600377948
Najrān,17.49,44.13,298.15,22,100,1.0,SA,1600378037
Cayenne,4.93,-52.33,302.15,74,0,4.6,GF,1600378024
Manitouwadge,49.12,-85.84,284.15,25,20,5.1,CA,1600378037
Tupelo,34.26,-88.7,302.15,62,40,7.2,US,1600378014
Bluff,-46.6,168.33,278.71,89,100,5.36,NZ,1600377945
Arraial do Cabo,-22.97,-42.03,297.15,73,0,6.7,BR,1600377863
Naduvattam,11.48,76.57,286.67,100,96,2.83,IN,1600378038
Narsaq,60.92,-46.05,279.15,70,75,2.6,GL,1600377781
Belyy Yar,53.6,91.39,285.15,76,100,3.14,RU,1600378038
Honningsvåg,70.98,25.97,280.15,87,75,4.1,NO,1600378038
Mataura,-46.19,168.86,278.71,89,87,5.36,NZ,1600377947
Vaini,-21.2,-175.2,295.15,88,75,4.6,TO,1600377870
Dikson,73.51,80.55,280.29,92,100,5.67,RU,1600377874
Rikitea,-23.12,-134.97,295.21,82,99,10.12,PF,1600377878
Umm Hājar,13.3,19.7,304.27,44,0,1.25,TD,1600378039
Roald,62.58,6.13,288.15,62,75,9.3,NO,1600378039
Ponorogo,-7.87,111.46,295.58,78,63,1.3,ID,1600378040
Ushuaia,-54.8,-68.3,275.15,64,75,18.5,AR,1600377661
Port Alfred,-33.59,26.89,288.15,73,32,2.94,ZA,1600377990
Busselton,-33.65,115.33,282.04,53,0,4.8,AU,1600377893
Ushuaia,-54.8,-68.3,275.15,64,75,18.5,AR,1600377661
Ushuaia,-54.8,-68.3,275.15,64,75,18.5,AR,1600377661
Jamestown,42.1,-79.24,291.48,72,75,4.6,US,1600377827
Nanortalik,60.14,-45.24,277.64,84,100,7.97,GL,1600377877
Emerald,-23.53,148.17,292.15,82,45,4.6,AU,1600378041
Mountain Home,43.13,-115.69,303.15,15,1,4.6,US,1600378041
Helong,42.54,129.0,282.06,83,36,2.44,CN,1600377876
Alofi,-19.06,-169.92,296.15,94,90,7.2,NU,1600378042
Marawi,8.0,124.29,297.04,93,43,1.79,PH,1600378042
Bluff,-46.6,168.33,278.71,89,100,5.36,NZ,1600377945
Lumsden,50.65,-104.87,293.15,37,75,1.5,CA,1600378042
Jacmel,18.23,-72.53,305.15,59,20,4.1,HT,1600378042
Tieli,46.95,128.05,283.24,96,100,2.61,CN,1600378043
Aklavik,68.22,-135.01,284.15,66,20,1.0,CA,1600377961
Charters Towers,-20.1,146.27,292.49,84,91,5.94,AU,1600378005
Hithadhoo,-0.6,73.08,301.06,80,86,5.13,MV,1600377670
Emba,48.83,58.14,284.94,64,85,3.91,KZ,1600377982
Punta Arenas,-53.15,-70.92,278.15,60,40,15.4,CL,1600377732
Geraldton,-28.77,114.6,279.15,81,0,3.1,AU,1600378044
Kapaa,22.08,-159.32,304.15,58,40,5.7,US,1600378019
Albany,42.6,-73.97,291.48,74,100,3.5,US,1600377966
Kununurra,-15.77,128.73,296.15,88,94,2.6,AU,1600377809
Bredasdorp,-34.53,20.04,282.15,87,66,1.5,ZA,1600377912
Ushuaia,-54.8,-68.3,275.15,64,75,18.5,AR,1600377661
Qaanaaq,77.48,-69.36,266.67,84,51,4.4,GL,1600377939
Hilo,19.73,-155.09,302.15,62,90,3.6,US,1600377785
Balkanabat,39.51,54.37,292.63,25,0,3.18,TM,1600378045
Jamestown,42.1,-79.24,291.48,72,75,4.6,US,1600377827
Talnakh,69.49,88.4,283.15,76,40,4.0,RU,1600378002
Santiago del Estero,-27.8,-64.26,303.98,17,0,3.79,AR,1600378045
Busselton,-33.65,115.33,282.04,53,0,4.8,AU,1600377893
Atuona,-9.8,-139.03,298.36,79,36,10.12,PF,1600377939
Faya,18.39,42.45,294.15,24,56,4.04,SA,1600377918
Butaritari,3.07,172.79,301.04,77,59,7.31,KI,1600377866
Chokurdakh,70.63,147.92,279.2,97,100,4.36,RU,1600377964
Tessalit,20.2,1.01,305.25,33,66,4.45,ML,1600378046
Tuatapere,-46.13,167.68,278.71,89,100,5.36,NZ,1600377885
Vaini,-21.2,-175.2,295.15,88,75,4.6,TO,1600377870
Ushuaia,-54.8,-68.3,275.15,64,75,18.5,AR,1600377661
Nikolskoye,59.7,30.79,282.15,81,90,8.0,RU,1600377967
Key Largo,25.09,-80.45,304.26,65,95,0.89,US,1600377789
Dikson,73.51,80.55,280.29,92,100,5.67,RU,1600377874
Isangel,-19.55,169.27,297.15,88,75,4.23,VU,1600377936
Avarua,-21.21,-159.78,297.15,60,100,4.6,CK,1600377974
Airai,-8.93,125.41,287.58,73,99,0.76,TL,1600378048
Upernavik,72.79,-56.15,274.17,87,99,2.04,GL,1600377940
Bethel,41.37,-73.41,295.37,56,1,1.5,US,1600377854
Bluff,-46.6,168.33,278.71,89,100,5.36,NZ,1600377945
Khatanga,71.97,102.5,280.7,82,7,3.12,RU,1600377959
Carnarvon,-24.87,113.63,288.15,38,0,4.6,AU,1600377944
Te Anau,-45.42,167.72,277.53,89,99,3.5,NZ,1600377988
Port Macquarie,-31.43,152.92,290.93,86,21,5.12,AU,1600377956
Bredasdorp,-34.53,20.04,282.15,87,66,1.5,ZA,1600377912
Bredasdorp,-34.53,20.04,282.15,87,66,1.5,ZA,1600377912
Praia da Vitória,38.73,-27.07,292.59,88,20,2.18,PT,1600378049
Cidreira,-30.18,-50.21,289.89,86,14,2.76,BR,1600377955
Kapaa,22.08,-159.32,304.15,58,40,5.7,US,1600378019
Rikitea,-23.12,-134.97,295.21,82,99,10.12,PF,1600377878
Punta Arenas,-53.15,-70.92,278.15,60,40,15.4,CL,1600377732
Malabo,3.75,8.78,298.15,94,40,2.6,GQ,1600378050
Mahrīz,31.59,54.43,293.15,28,0,2.1,IR,1600378050
Lagoa,39.05,-27.98,293.8,78,98,6.39,PT,1600378050
Khatanga,71.97,102.5,280.7,82,7,3.12,RU,1600377959
Coquimbo,-29.95,-71.34,287.15,82,2,6.2,CL,1600378051
Bethel,41.37,-73.41,295.37,56,1,1.5,US,1600377854
Rikitea,-23.12,-134.97,295.21,82,99,10.12,PF,1600377878
Hasaki,35.73,140.83,300.37,83,75,4.6,JP,1600377864
Bluff,-46.6,168.33,278.71,89,100,5.36,NZ,1600377945
Guánica,17.97,-66.91,305.37,67,6,0.45,PR,1600378052
New Norfolk,-42.78,147.06,275.93,75,0,1.03,AU,1600377884
Jamestown,42.1,-79.24,291.48,72,75,4.6,US,1600377827
Arraial do Cabo,-22.97,-42.03,297.15,73,0,6.7,BR,1600377863
Semey,50.41,80.23,286.74,38,47,6.03,KZ,1600378052
Jamestown,42.1,-79.24,291.48,72,75,4.6,US,1600377827
Bubaque,11.28,-15.83,300.17,83,61,5.47,GW,1600378052
Ponta do Sol,32.67,-17.1,295.15,64,20,2.6,PT,1600377971
Busselton,-33.65,115.33,282.04,53,0,4.8,AU,1600377893
Cururupu,-1.83,-44.87,299.29,79,23,2.28,BR,1600378053
Yinchuan,38.47,106.27,289.92,30,0,1.23,CN,1600378053
Lebu,-37.62,-73.65,284.65,80,65,5.68,CL,1600377903
Itarema,-2.92,-39.92,299.12,74,0,6.73,BR,1600378053
Provideniya,64.38,-173.3,282.15,70,75,4.0,RU,1600377965
Hofn,64.25,-15.21,283.47,75,0,4.16,IS,1600378054
Tambopata,-12.73,-69.18,304.15,66,40,2.6,PE,1600378054
Thompson,55.74,-97.86,282.15,36,40,5.7,CA,1600377942
Hermanus,-34.42,19.23,281.48,93,55,1.51,ZA,1600377982
Torbay,47.67,-52.73,290.93,82,75,11.8,CA,1600377970
Punta Arenas,-53.15,-70.92,278.15,60,40,15.4,CL,1600377732
Bluff,-46.6,168.33,278.71,89,100,5.36,NZ,1600377945
Half Moon Bay,37.46,-122.43,298.15,82,75,4.6,US,1600378038
Mataura,-46.19,168.86,278.71,89,87,5.36,NZ,1600377947
Kavieng,-2.57,150.8,301.22,77,100,5.13,PG,1600377952
Kruisfontein,-34.0,24.73,285.93,80,0,1.79,ZA,1600377982
Vaini,-21.2,-175.2,295.15,88,75,4.6,TO,1600377870
Norman Wells,65.28,-126.83,287.15,54,75,4.6,CA,1600378055
Carnarvon,-24.87,113.63,288.15,38,0,4.6,AU,1600377944
Dikson,73.51,80.55,280.29,92,100,5.67,RU,1600377874
Mataura,-46.19,168.86,278.71,89,87,5.36,NZ,1600377947
Esperance,-33.87,121.9,283.15,100,90,2.6,AU,1600377970
Itaituba,-4.28,-55.98,309.15,41,20,0.83,BR,1600378056
Arawa,-6.21,155.54,298.78,86,100,3.65,PG,1600378056
Poum,-20.23,164.02,295.27,75,0,3.78,NC,1600378003
Punta Arenas,-53.15,-70.92,278.15,60,40,15.4,CL,1600377732
Alexandria,31.22,29.96,300.15,74,20,5.1,EG,1600377876
El Salvador,13.83,-88.92,303.15,74,40,3.1,SV,1600378013
Kaohsiung City,22.62,120.31,301.48,88,75,2.1,TW,1600378057
Vila do Maio,15.13,-23.22,300.91,78,0,1.42,CV,1600378057
Atuona,-9.8,-139.03,298.36,79,36,10.12,PF,1600377939
Margate,51.38,1.39,290.37,67,63,1.79,GB,1600378057
Lagoa,39.05,-27.98,293.8,78,98,6.39,PT,1600378050
Codrington,-38.27,141.97,282.63,86,100,4.29,AU,1600378058
Graham,47.05,-122.29,297.04,69,1,1.97,US,1600378058
Barrow,71.29,-156.79,281.15,87,90,3.1,US,1600377656
Rikitea,-23.12,-134.97,295.21,82,99,10.12,PF,1600377878
Rikitea,-23.12,-134.97,295.21,82,99,10.12,PF,1600377878
Krasnosel'kup,65.7,82.47,280.34,90,0,4.82,RU,1600377995
Bredasdorp,-34.53,20.04,282.15,87,66,1.5,ZA,1600377912
Oktyabr'skoye,43.06,44.74,284.82,93,22,2.0,RU,1600378059
Puerto Ayora,-0.74,-90.35,297.15,64,20,9.8,EC,1600377962
Port Elizabeth,-33.92,25.57,284.15,93,0,2.38,ZA,1600377945
Ostrovnoy,68.05,39.51,278.84,87,0,3.33,RU,1600377999
Nouadhibou,20.93,-17.03,299.52,67,66,8.48,MR,1600378060
Vaini,-21.2,-175.2,295.15,88,75,4.6,TO,1600377870
Khatanga,71.97,102.5,280.7,82,7,3.12,RU,1600377959
Saskylakh,71.92,114.08,281.1,81,0,4.03,RU,1600377965
Ushuaia,-54.8,-68.3,275.15,64,75,18.5,AR,1600377661
Hirara,24.8,125.28,301.95,81,89,5.43,JP,1600378061
Ulagan,50.63,87.96,280.85,58,84,1.28,RU,1600378024
Mar del Plata,-38.0,-57.56,293.15,57,9,4.6,AR,1600377868
Butaritari,3.07,172.79,301.04,77,59,7.31,KI,1600377866
Rawson,-43.3,-65.1,286.99,35,83,16.32,AR,1600378061
Oddur,4.12,43.89,296.48,72,0,8.39,SO,1600378061
Bluff,-46.6,168.33,278.71,89,100,5.36,NZ,1600377945
Kearney,40.7,-99.08,297.15,47,1,4.6,US,1600378062
Cape Town,-33.93,18.42,285.93,93,24,1.5,ZA,1600377689
São Filipe,14.9,-24.5,300.2,83,64,3.09,CV,1600377944
Safranbolu,41.25,32.69,290.85,71,0,0.25,TR,1600378062
Dikson,73.51,80.55,280.29,92,100,5.67,RU,1600377874
Puerto del Rosario,28.5,-13.86,297.15,73,20,6.2,ES,1600378063
Caceres,39.52,-6.37,290.93,92,100,0.45,ES,1600378063
Saint George,37.1,-113.58,311.48,8,1,2.1,US,1600377867
Hermanus,-34.42,19.23,281.48,93,55,1.51,ZA,1600377982
Tambacounda,13.75,-13.76,303.15,84,40,2.1,SN,1600378063
Necochea,-38.55,-58.74,291.48,37,77,1.34,AR,1600377968
Dikson,73.51,80.55,280.29,92,100,5.67,RU,1600377874
Bredasdorp,-34.53,20.04,282.15,87,66,1.5,ZA,1600377912
Rudnyy,52.96,63.12,284.15,81,90,6.0,KZ,1600378064
Broome,42.25,-75.83,290.93,93,90,4.1,US,1600378007
Rikitea,-23.12,-134.97,295.21,82,99,10.12,PF,1600377878
Qaanaaq,77.48,-69.36,266.67,84,51,4.4,GL,1600377939
Bilma,18.69,12.92,309.04,15,0,2.15,NE,1600378065
Labuhan,-6.88,112.21,297.91,82,56,3.03,ID,1600378065
São Filipe,14.9,-24.5,300.2,83,64,3.09,CV,1600377944
Buala,-8.14,159.59,300.12,83,99,4.94,SB,1600378066
Puerto Ayora,-0.74,-90.35,297.15,64,20,9.8,EC,1600377962
Samarai,-10.62,150.67,299.3,86,100,7.67,PG,1600378066
Rikitea,-23.12,-134.97,295.21,82,99,10.12,PF,1600377878
Korla,41.76,86.15,293.15,58,0,1.34,CN,1600377949
Haapiti,-17.57,-149.87,301.15,69,40,4.6,PF,1600378066
Leningradskiy,69.38,178.42,273.94,94,100,7.02,RU,1600377996
Beloha,-25.17,45.05,292.07,90,0,2.3,MG,1600378067
Sangar,63.92,127.47,276.74,86,0,1.2,RU,1600378067
Chui,-33.7,-53.46,290.13,72,0,2.69,UY,1600378067
Ushuaia,-54.8,-68.3,275.15,64,75,18.5,AR,1600377661
Albany,42.6,-73.97,291.48,74,100,3.5,US,1600377966
Santiago de Cuba,20.02,-75.82,303.15,74,40,2.6,CU,1600378068
Fairbanks,64.84,-147.72,288.15,44,1,5.1,US,1600378010
Shingū,33.73,135.98,297.98,92,100,4.69,JP,1600378068
Castro,-24.79,-50.01,290.35,78,100,3.77,BR,1600377975
Yellowknife,62.46,-114.35,282.15,66,75,5.7,CA,1600377981
Hermanus,-34.42,19.23,281.48,93,55,1.51,ZA,1600377982
Poputnaya,44.51,41.44,287.04,4,0,4.92,RU,1600378069
Hithadhoo,-0.6,73.08,301.06,80,86,5.13,MV,1600377670
Rādhanpur,23.83,71.6,302.43,77,93,5.76,IN,1600378069
Iwanai,42.97,140.51,291.35,91,100,1.12,JP,1600378069
Rikitea,-23.12,-134.97,295.21,82,99,10.12,PF,1600377878
Liverpool,53.41,-2.98,287.59,82,0,2.6,GB,1600377795
Penzance,50.12,-5.54,289.15,87,0,12.9,GB,1600378070
Rikitea,-23.12,-134.97,295.21,82,99,10.12,PF,1600377878
Butaritari,3.07,172.79,301.04,77,59,7.31,KI,1600377866
Aklavik,68.22,-135.01,284.15,66,20,1.0,CA,1600377961
Port Alfred,-33.59,26.89,288.15,73,32,2.94,ZA,1600377990
Roald,62.58,6.13,288.15,62,75,9.3,NO,1600378039
Pevek,69.7,170.31,274.45,89,99,3.73,RU,1600377995
Tiksi,71.69,128.87,280.54,82,100,7.18,RU,1600377865
Korla,41.76,86.15,293.15,58,0,1.34,CN,1600377949
Dikson,73.51,80.55,280.29,92,100,5.67,RU,1600377874
Hilo,19.73,-155.09,302.15,62,90,3.6,US,1600377785
Butaritari,3.07,172.79,301.04,77,59,7.31,KI,1600377866
Saldanha,-33.01,17.94,284.15,87,0,1.5,ZA,1600377953
Provideniya,64.38,-173.3,282.15,70,75,4.0,RU,1600377965
Bredasdorp,-34.53,20.04,282.15,87,66,1.5,ZA,1600377912
Avarua,-21.21,-159.78,297.15,60,100,4.6,CK,1600377974
Saint Paul Harbor,57.79,-152.41,286.15,62,90,9.8,US,1600377971
Sweetwater,25.76,-80.37,306.48,66,75,6.2,US,1600378072
Sisimiut,66.94,-53.67,276.84,74,68,3.75,GL,1600377829
New Norfolk,-42.78,147.06,275.93,75,0,1.03,AU,1600377884
Dvinskoy,62.15,45.12,276.64,95,100,6.03,RU,1600378072
Bredasdorp,-34.53,20.04,282.15,87,66,1.5,ZA,1600377912
Sawtell,-30.38,153.1,292.15,72,75,5.1,AU,1600378073
Pisco,-13.7,-76.22,291.15,77,75,3.1,PE,1600377892
Rikitea,-23.12,-134.97,295.21,82,99,10.12,PF,1600377878
Goderich,43.75,-81.72,287.59,68,3,8.64,CA,1600377967
Bluff,-46.6,168.33,278.71,89,100,5.36,NZ,1600377945
Cabo San Lucas,22.89,-109.91,306.15,52,40,1.23,MX,1600377906
Puerto Escondido,15.85,-97.07,304.15,58,75,3.1,MX,1600378073
Owosso,43.0,-84.18,290.93,48,1,3.1,US,1600378074
Rikitea,-23.12,-134.97,295.21,82,99,10.12,PF,1600377878
Ondjiva,-17.07,15.73,294.81,21,0,2.79,AO,1600378074
Vaini,-21.2,-175.2,295.15,88,75,4.6,TO,1600377870
Punta Arenas,-53.15,-70.92,278.15,60,40,15.4,CL,1600377732
Busselton,-33.65,115.33,282.04,53,0,4.8,AU,1600377893
Constitución,-35.33,-72.42,289.07,71,0,7.91,CL,1600377960
Ushuaia,-54.8,-68.3,275.15,64,75,18.5,AR,1600377661
Maniitsoq,65.42,-52.9,276.88,73,52,4.33,GL,1600378075
Nikolskoye,59.7,30.79,282.15,81,90,8.0,RU,1600377967
Ushuaia,-54.8,-68.3,275.15,64,75,18.5,AR,1600377661
Vardø,70.37,31.11,279.15,81,100,8.2,NO,1600377691
Bambous Virieux,-20.34,57.76,295.15,68,75,4.6,MU,1600377956
Qaqortoq,60.72,-46.03,279.15,70,75,2.6,GL,1600378014
Esmeraldas,-19.76,-44.31,304.15,32,1,3.1,BR,1600378076
Ushuaia,-54.8,-68.3,275.15,64,75,18.5,AR,1600377661
Vaini,-21.2,-175.2,295.15,88,75,4.6,TO,1600377870
Rikitea,-23.12,-134.97,295.21,82,99,10.12,PF,1600377878
Bluff,-46.6,168.33,278.71,89,100,5.36,NZ,1600377945
Punta Arenas,-53.15,-70.92,278.15,60,40,15.4,CL,1600377732
Rikitea,-23.12,-134.97,295.21,82,99,10.12,PF,1600377878
Jamestown,42.1,-79.24,291.48,72,75,4.6,US,1600377827
Mataura,-46.19,168.86,278.71,89,87,5.36,NZ,1600377947
Ponta do Sol,32.67,-17.1,295.15,64,20,2.6,PT,1600377971
Ondjiva,-17.07,15.73,294.81,21,0,2.79,AO,1600378074
Russell,32.35,-85.2,299.15,73,90,5.1,US,1600378077
Ushuaia,-54.8,-68.3,275.15,64,75,18.5,AR,1600377661
Saskylakh,71.92,114.08,281.1,81,0,4.03,RU,1600377965
Fortuna,40.6,-124.16,297.04,64,20,6.7,US,1600377981
Harper,4.38,-7.72,297.04,87,100,5.3,LR,1600378077
Pemberton,50.32,-122.8,293.15,64,90,1.0,CA,1600378078
Port Alfred,-33.59,26.89,288.15,73,32,2.94,ZA,1600377990
Ushuaia,-54.8,-68.3,275.15,64,75,18.5,AR,1600377661
Chochola,20.75,-89.83,305.37,66,75,5.1,MX,1600378078
Rikitea,-23.12,-134.97,295.21,82,99,10.12,PF,1600377878
Witu,-2.39,40.44,298.15,83,75,2.6,KE,1600378078
Punta Arenas,-53.15,-70.92,278.15,60,40,15.4,CL,1600377732
Atuona,-9.8,-139.03,298.36,79,36,10.12,PF,1600377939
Imeni Poliny Osipenko,52.42,136.49,282.22,94,100,7.42,RU,1600378079
Buarcos,40.17,-8.88,291.48,82,20,2.1,PT,1600378079
Pankovka,58.5,31.2,281.72,90,100,5.25,RU,1600378079
Rocha,-34.48,-54.33,290.02,72,0,3.48,UY,1600378080
Kumul,42.8,93.45,292.28,24,0,1.76,CN,1600378080
Kumul,42.8,93.45,292.28,24,0,1.76,CN,1600378080
Tanout,14.97,8.89,305.88,36,45,3.67,NE,1600378082
Richards Bay,-28.78,32.04,291.26,76,53,2.17,ZA,1600377953
Banepā,27.63,85.52,295.15,94,75,0.45,NP,1600378082
Rikitea,-23.12,-134.97,295.21,82,99,10.12,PF,1600377878
Hobart,-42.88,147.33,275.93,78,20,3.1,AU,1600377733
Hermanus,-34.42,19.23,281.48,93,55,1.51,ZA,1600377982
Mataura,-46.19,168.86,278.71,89,87,5.36,NZ,1600377947
Castro,-24.79,-50.01,290.35,78,100,3.77,BR,1600377975
Rosa Zarate,0.33,-79.47,300.98,67,99,2.97,EC,1600378085
Hilo,19.73,-155.09,302.15,62,90,3.6,US,1600377785
Norman Wells,65.28,-126.83,287.15,54,75,4.6,CA,1600378055
Acapulco de Juárez,16.86,-99.89,303.15,79,90,2.6,MX,1600377945
Carutapera,-1.2,-46.02,300.05,75,54,4.29,BR,1600378025
Ancud,-41.87,-73.82,285.37,64,100,1.79,CL,1600378086
Atuona,-9.8,-139.03,298.36,79,36,10.12,PF,1600377939
Tiksi,71.69,128.87,280.54,82,100,7.18,RU,1600377865
Eirunepé,-6.66,-69.87,305.8,43,100,0.74,BR,1600378087
Iqaluit,63.75,-68.51,277.15,74,75,1.35,CA,1600377918
Sukhothai,17.25,99.67,298.51,89,100,1.59,TH,1600378087
Lüderitz,-26.65,15.16,287.93,70,0,5.45,NA,1600377876
Half Moon Bay,37.46,-122.43,298.15,82,75,4.6,US,1600378038
Rikitea,-23.12,-134.97,295.21,82,99,10.12,PF,1600377878
Itarema,-2.92,-39.92,299.12,74,0,6.73,BR,1600378053
Yar-Sale,66.83,70.83,279.41,92,90,1.86,RU,1600378088
Esmeraldas,-19.76,-44.31,304.15,32,1,3.1,BR,1600378076
Xiongyue,40.18,122.12,290.74,60,0,4.3,CN,1600378088
Punta Arenas,-53.15,-70.92,278.15,60,40,15.4,CL,1600377732
Busselton,-33.65,115.33,282.04,53,0,4.8,AU,1600377893
Saint George,37.1,-113.58,311.48,8,1,2.1,US,1600377867
Vaini,-21.2,-175.2,295.15,88,75,4.6,TO,1600377870
Kavieng,-2.57,150.8,301.22,77,100,5.13,PG,1600377952
Tual,-5.67,132.75,299.59,86,100,5.32,ID,1600378001
Ushuaia,-54.8,-68.3,275.15,64,75,18.5,AR,1600377661
Mahébourg,-20.41,57.7,295.15,68,75,4.6,MU,1600378090
Dubrovnik,42.65,18.09,301.15,39,29,10.3,HR,1600377820
Busselton,-33.65,115.33,282.04,53,0,4.8,AU,1600377893
Bredasdorp,-34.53,20.04,282.15,87,66,1.5,ZA,1600377912
Bluff,-46.6,168.33,278.71,89,100,5.36,NZ,1600377945
Nikolskoye,59.7,30.79,282.15,81,90,8.0,RU,1600377967
Jamestown,42.1,-79.24,291.48,72,75,4.6,US,1600377827
Bredasdorp,-34.53,20.04,282.15,87,66,1.5,ZA,1600377912
Punta Arenas,-53.15,-70.92,278.15,60,40,15.4,CL,1600377732
Lagoa,39.05,-27.98,293.8,78,98,6.39,PT,1600378050
Valparaíso,-33.04,-71.63,298.15,46,0,7.7,CL,1600378091
Khatanga,71.97,102.5,280.7,82,7,3.12,RU,1600377959
Yellowknife,62.46,-114.35,282.15,66,75,5.7,CA,1600377981
Viña del Mar,-33.02,-71.55,298.15,46,0,7.7,CL,1600378092
Beyneu,45.32,55.2,283.65,56,0,2.49,KZ,1600378092
Kandrian,-6.22,149.55,299.1,84,99,1.78,PG,1600378093
Chui,-33.7,-53.46,290.13,72,0,2.69,UY,1600378067
‘Āhuimanu,21.44,-157.84,304.15,54,40,5.7,US,1600378093
Mossamedes,-15.2,12.15,289.92,76,0,3.33,AO,1600377958
Kaitangata,-46.28,169.85,280.37,55,76,3.58,NZ,1600377886
San Vicente,-26.62,-54.13,292.98,94,40,0.82,AR,1600378093
Nha Trang,12.25,109.18,303.15,74,75,7.7,VN,1600378094
Muros,42.78,-9.06,290.37,94,94,0.45,ES,1600377943
Hilo,19.73,-155.09,302.15,62,90,3.6,US,1600377785
Hobart,-42.88,147.33,275.93,78,20,3.1,AU,1600377733
Luena,-11.78,19.92,292.79,62,14,2.47,AO,1600378094
Bredasdorp,-34.53,20.04,282.15,87,66,1.5,ZA,1600377912
Iqaluit,63.75,-68.51,277.15,74,75,1.35,CA,1600377918
Saint George,37.1,-113.58,311.48,8,1,2.1,US,1600377867
Kudahuvadhoo,2.67,72.89,301.28,78,100,4.37,MV,1600378095
Churapcha,62.0,132.43,275.6,83,0,1.42,RU,1600378095
