City,Lat,Lng,Max Temp,Humidity,Cloudiness,Wind Speed,Country,Date
Dutlwe,-23.98,23.9,290.59,22,1,7.6,BW,1600295331
Punta Arenas,-53.15,-70.92,277.15,80,90,6.7,CL,1600294784
Arraial do Cabo,-22.97,-42.03,296.15,83,55,8.2,BR,1600294784
Dolores,-36.31,-57.68,285.31,67,42,1.45,AR,1600294784
Saldanha,-33.01,17.94,287.15,87,55,2.6,ZA,1600294879
Hofn,64.25,-15.21,282.8,88,100,12.46,IS,1600294785
Springbok,-29.66,17.89,279.87,82,0,1.43,ZA,1600294786
Punta Arenas,-53.15,-70.92,277.15,80,90,6.7,CL,1600294784
Salalah,17.02,54.09,300.15,88,75,2.1,OM,1600294787
Rikitea,-23.12,-134.97,296.25,77,2,3.33,PF,1600295332
Naze,28.37,129.48,301.15,88,75,5.7,JP,1600295332
Vaini,-21.2,-175.2,297.15,64,75,6.2,TO,1600295271
Albany,42.6,-73.97,292.59,55,90,8.2,US,1600295333
Port Elizabeth,-33.92,25.57,287.15,82,3,8.2,ZA,1600295333
Salta,-24.79,-65.41,295.15,30,40,4.1,AR,1600295124
Prince George,53.92,-122.75,292.59,59,1,2.1,CA,1600295214
Ilulissat,69.22,-51.1,276.15,93,99,1.5,GL,1600295333
Hithadhoo,-0.6,73.08,301.13,76,78,5.75,MV,1600295334
Imbituba,-28.24,-48.67,294.15,77,40,1.5,BR,1600295334
Soni,-4.85,38.37,287.22,97,0,0.95,TZ,1600295334
Lompoc,34.64,-120.46,296.15,68,1,7.2,US,1600294790
Nago,26.59,127.98,301.15,88,1,2.6,JP,1600294790
Souillac,-20.52,57.52,292.15,72,75,3.1,MU,1600294790
Cape Town,-33.93,18.42,286.48,100,40,1.0,ZA,1600294809
Puerto Madryn,-42.77,-65.04,290.04,37,100,13.12,AR,1600294671
Barrow,71.29,-156.79,279.15,87,90,5.1,US,1600294792
Yellowknife,62.46,-114.35,282.04,39,20,2.1,CA,1600294542
Airai,-8.93,125.41,287.27,64,93,0.61,TL,1600294792
Rikitea,-23.12,-134.97,296.25,77,2,3.33,PF,1600294787
Rikitea,-23.12,-134.97,296.25,77,2,3.33,PF,1600294787
Punta Arenas,-53.15,-70.92,277.15,80,90,6.7,CL,1600294784
Bandarbeyla,9.49,50.81,298.45,77,85,10.49,SO,1600294793
Upernavik,72.79,-56.15,272.52,89,100,2.6,GL,1600294793
Hobart,-42.88,147.33,280.93,65,40,3.6,AU,1600294660
Ushuaia,-54.8,-68.3,278.15,44,75,5.7,AR,1600294793
Saskylakh,71.92,114.08,281.27,81,98,3.05,RU,1600294794
Vradiyivka,47.86,30.59,291.22,49,0,2.91,UA,1600294794
Kapaa,22.08,-159.32,303.15,62,1,5.7,US,1600294794
Muriti,-1.98,32.92,296.15,88,20,2.6,TZ,1600294794
Yellowknife,62.46,-114.35,282.04,39,20,2.1,CA,1600294542
Kapit,2.02,112.93,295.27,93,99,0.75,MY,1600294795
Rikitea,-23.12,-134.97,296.25,77,2,3.33,PF,1600294787
Saint Paul Harbor,57.79,-152.41,284.6,80,100,2.71,US,1600294795
Manali,13.17,80.27,299.15,94,75,1.0,IN,1600294796
Port Elizabeth,-33.92,25.57,287.15,82,3,8.2,ZA,1600294788
New Norfolk,-42.78,147.06,280.93,68,89,1.34,AU,1600294796
Palmer,42.16,-72.33,295.15,49,75,2.6,US,1600294558
Rikitea,-23.12,-134.97,296.25,77,2,3.33,PF,1600294787
Saurimo,-9.66,20.39,293.62,76,100,2.17,AO,1600294797
Hervey Bay,-25.3,152.85,293.15,82,0,2.24,AU,1600294797
Tiksi,71.69,128.87,279.64,78,99,4.48,RU,1600294797
Carnarvon,-24.87,113.63,290.15,59,0,7.2,AU,1600294797
Ushuaia,-54.8,-68.3,278.15,44,75,5.7,AR,1600294793
Hithadhoo,-0.6,73.08,301.13,76,78,5.75,MV,1600294789
San Patricio,19.22,-104.7,305.15,75,75,5.1,MX,1600294798
Tuktoyaktuk,69.45,-133.04,281.15,65,75,6.2,CA,1600294798
Punta Arenas,-53.15,-70.92,277.15,80,90,6.7,CL,1600294784
Rikitea,-23.12,-134.97,296.25,77,2,3.33,PF,1600294787
Punta Arenas,-53.15,-70.92,277.15,80,90,6.7,CL,1600294784
Mehamn,71.04,27.85,280.15,70,75,4.1,NO,1600294799
Seymchan,62.88,152.43,279.67,71,30,3.29,RU,1600294799
Salalah,17.02,54.09,300.15,88,75,2.1,OM,1600294787
Arraial do Cabo,-22.97,-42.03,296.15,83,55,8.2,BR,1600294784
Ushuaia,-54.8,-68.3,278.15,44,75,5.7,AR,1600294793
Hambantota,6.12,81.12,299.15,100,5,4.6,LK,1600294800
Qaanaaq,77.48,-69.36,265.69,78,0,2.09,GL,1600294800
Slave Lake,55.28,-114.77,286.15,66,40,1.5,CA,1600294800
Sucúa,-2.47,-78.17,299.15,57,40,1.0,EC,1600294800
Mobaye,4.32,21.18,295.46,94,34,0.65,CF,1600294800
Busselton,-33.65,115.33,282.04,67,0,4.81,AU,1600294801
Rikitea,-23.12,-134.97,296.25,77,2,3.33,PF,1600294787
Tecalitlán,19.47,-103.3,298.15,83,75,6.2,MX,1600294802
Sitka,57.05,-135.33,287.15,67,20,2.6,US,1600294802
Hobart,-42.88,147.33,280.93,65,40,3.6,AU,1600294660
Carnarvon,-24.87,113.63,290.15,59,0,7.2,AU,1600294797
Mahanoro,-19.9,48.8,290.85,83,5,1.76,MG,1600294802
Kaeo,-35.1,173.78,289.26,3,6,1.79,NZ,1600294803
Halifax,44.65,-63.57,288.15,62,75,6.2,CA,1600294780
Barrow,71.29,-156.79,279.15,87,90,5.1,US,1600294792
Te Anau,-45.42,167.72,281.39,88,100,3.46,NZ,1600294803
Laguna,38.42,-121.42,306.48,24,1,2.1,US,1600294804
Port Augusta,-32.5,137.77,290.93,45,100,0.45,AU,1600294804
Saint George,37.1,-113.58,310.15,7,1,2.1,US,1600294804
La Ciotat,43.17,5.6,295.93,71,0,2.34,FR,1600294804
Nanton,50.35,-113.77,292.59,54,11,3.35,CA,1600294805
New Norfolk,-42.78,147.06,280.93,68,89,1.34,AU,1600294796
Birobidzhan,48.8,132.95,287.38,97,100,3.97,RU,1600294805
Hermanus,-34.42,19.23,284.26,95,16,3.48,ZA,1600294805
Baoma,31.49,106.11,290.36,86,100,3.92,CN,1600294806
Nikolskoye,59.7,30.79,290.15,88,75,3.0,RU,1600294806
Tuktoyaktuk,69.45,-133.04,281.15,65,75,6.2,CA,1600294798
Tibanban,6.63,126.08,299.46,87,100,6.73,PH,1600294806
Hobart,-42.88,147.33,280.93,65,40,3.6,AU,1600294660
Bluff,-46.6,168.33,282.59,87,100,7.15,NZ,1600294807
Juegang,32.32,121.19,294.14,93,100,4.17,CN,1600294807
Ushuaia,-54.8,-68.3,278.15,44,75,5.7,AR,1600294793
Hermanus,-34.42,19.23,284.26,95,16,3.48,ZA,1600294805
Mount Gambier,-37.83,140.77,284.15,100,90,4.1,AU,1600294808
Avarua,-21.21,-159.78,300.15,65,23,5.7,CK,1600294809
Tuktoyaktuk,69.45,-133.04,281.15,65,75,6.2,CA,1600294798
Puerto Ayora,-0.74,-90.35,297.15,64,20,9.3,EC,1600294636
Sargatskoye,55.61,73.5,281.34,66,38,6.06,RU,1600294809
Saint-Philippe,-21.36,55.77,292.15,55,20,3.6,RE,1600294810
Torbay,47.67,-52.73,284.82,66,75,4.6,CA,1600294810
Punta Arenas,-53.15,-70.92,277.15,80,90,6.7,CL,1600294784
Namatanai,-3.67,152.43,301.31,74,38,3.98,PG,1600294810
Cidreira,-30.18,-50.21,290.38,95,100,3.71,BR,1600294795
Ribeira Grande,38.52,-28.7,292.23,65,100,6.77,PT,1600294810
Mandiana,10.63,-8.68,296.98,88,100,0.92,GN,1600294811
Busselton,-33.65,115.33,282.04,67,0,4.81,AU,1600294801
Castro,-24.79,-50.01,293.36,55,77,2.17,BR,1600294811
Kuching,1.55,110.33,295.15,100,40,0.5,MY,1600294744
Tuktoyaktuk,69.45,-133.04,281.15,65,75,6.2,CA,1600294798
Butaritari,3.07,172.79,301.47,71,26,8.95,KI,1600294812
Kilkenny,52.65,-7.25,288.15,89,53,2.24,IE,1600294812
San Patricio,19.22,-104.7,305.15,75,75,5.1,MX,1600294798
Qaanaaq,77.48,-69.36,265.69,78,0,2.09,GL,1600294800
Yulara,-25.24,130.99,288.15,33,66,3.94,AU,1600294813
Barrow,71.29,-156.79,279.15,87,90,5.1,US,1600294792
Garoowe,8.41,48.48,298.95,60,50,8.44,SO,1600294813
Cape Town,-33.93,18.42,286.48,100,40,1.0,ZA,1600294809
Mar del Plata,-38.0,-57.56,283.15,81,40,4.6,AR,1600294813
Vila Velha,-20.33,-40.29,298.15,73,7,5.7,BR,1600294814
Bambous Virieux,-20.34,57.76,292.15,72,75,3.1,MU,1600294814
Shar,49.59,81.05,290.08,38,100,3.09,KZ,1600294814
Ushuaia,-54.8,-68.3,278.15,44,75,5.7,AR,1600294793
Northam,51.03,-4.22,290.37,90,92,3.58,GB,1600294815
Newport,51.59,-3.0,290.37,86,16,0.45,GB,1600294815
Hithadhoo,-0.6,73.08,301.13,76,78,5.75,MV,1600294789
Hong Kong,22.29,114.16,302.04,88,47,8.15,HK,1600294811
Chui,-33.7,-53.46,285.29,91,39,2.81,UY,1600294815
Avarua,-21.21,-159.78,300.15,65,23,5.7,CK,1600294809
Gorontalo,0.54,123.06,297.16,79,100,0.77,ID,1600294816
Cherskiy,68.75,161.3,278.12,83,98,6.62,RU,1600294816
George Town,5.41,100.34,299.15,94,20,2.1,MY,1600294579
Alofi,-19.06,-169.92,297.15,78,75,8.2,NU,1600294817
Rikitea,-23.12,-134.97,296.25,77,2,3.33,PF,1600294787
Sechura,-5.56,-80.82,294.55,62,10,8.07,PE,1600294817
Kiryat Gat,31.61,34.76,300.93,84,0,0.45,IL,1600294817
Boone,39.03,-92.33,300.93,51,4,2.22,US,1600294818
New Norfolk,-42.78,147.06,280.93,68,89,1.34,AU,1600294796
New Norfolk,-42.78,147.06,280.93,68,89,1.34,AU,1600294796
Busselton,-33.65,115.33,282.04,67,0,4.81,AU,1600294801
Sørland,67.67,12.69,280.15,70,75,1.5,NO,1600294818
Thompson,55.74,-97.86,280.15,39,40,6.7,CA,1600294697
Sinegor'ye,62.08,150.48,276.99,84,100,2.17,RU,1600294819
Hobart,-42.88,147.33,280.93,65,40,3.6,AU,1600294660
Barrow,71.29,-156.79,279.15,87,90,5.1,US,1600294792
Tasiilaq,65.61,-37.64,277.15,94,100,4.6,GL,1600294819
Khatanga,71.97,102.5,280.82,86,51,2.23,RU,1600294820
Kavieng,-2.57,150.8,302.0,78,21,7.08,PG,1600294820
Albany,42.6,-73.97,292.59,55,90,8.2,US,1600294788
Cape Town,-33.93,18.42,286.48,100,40,1.0,ZA,1600294809
Nanortalik,60.14,-45.24,277.93,86,100,7.68,GL,1600294820
Ushuaia,-54.8,-68.3,278.15,44,75,5.7,AR,1600294793
Punta Arenas,-53.15,-70.92,277.15,80,90,6.7,CL,1600294784
Atambua,-9.11,124.89,293.79,80,80,1.67,ID,1600294821
Hong Kong,22.29,114.16,302.04,88,47,8.15,HK,1600294811
Ponta do Sol,32.67,-17.1,294.15,60,40,2.1,PT,1600294821
Moree,-29.47,149.85,289.15,72,0,5.7,AU,1600294821
Zeya,53.75,127.27,285.51,91,100,2.08,RU,1600294822
Albany,42.6,-73.97,292.59,55,90,8.2,US,1600294788
Chokurdakh,70.63,147.92,276.09,92,100,1.41,RU,1600294822
Ariniş,47.5,23.23,290.37,67,100,3.6,RO,1600294823
Norman Wells,65.28,-126.83,282.15,61,90,3.6,CA,1600294823
Nikolskoye,59.7,30.79,290.15,88,75,3.0,RU,1600294806
Castro,-24.79,-50.01,293.36,55,77,2.17,BR,1600294811
Saint Anthony,45.02,-93.22,293.71,48,40,9.3,US,1600294823
Makakilo City,21.35,-158.09,304.15,55,1,4.6,US,1600294824
Guarapari,-20.67,-40.5,298.15,71,3,5.13,BR,1600294824
Urengoy,65.97,78.37,283.1,86,100,5.46,RU,1600294825
Hong Kong,22.29,114.16,302.04,88,47,8.15,HK,1600294811
Rikitea,-23.12,-134.97,296.25,77,2,3.33,PF,1600294787
Tazmalt,36.39,4.4,293.15,72,14,2.1,DZ,1600294825
Mataura,-46.19,168.86,282.59,87,100,7.15,NZ,1600294826
Busselton,-33.65,115.33,282.04,67,0,4.81,AU,1600294801
Lompoc,34.64,-120.46,296.15,68,1,7.2,US,1600294790
Hermanus,-34.42,19.23,284.26,95,16,3.48,ZA,1600294805
George Town,5.41,100.34,299.15,94,20,2.1,MY,1600294579
Khatanga,71.97,102.5,280.82,86,51,2.23,RU,1600294820
Iqaluit,63.75,-68.51,275.15,74,75,1.5,CA,1600294757
Puerto Ayora,-0.74,-90.35,297.15,64,20,9.3,EC,1600294636
Dikson,73.51,80.55,278.36,97,88,0.59,RU,1600294827
Jamestown,42.1,-79.24,294.82,60,1,3.6,US,1600294827
Mataura,-46.19,168.86,282.59,87,100,7.15,NZ,1600294826
Lebu,-37.62,-73.65,284.59,80,28,2.19,CL,1600294827
Bethel,41.37,-73.41,292.04,68,0,3.73,US,1600294624
Yellowknife,62.46,-114.35,282.04,39,20,2.1,CA,1600294542
Hermanus,-34.42,19.23,284.26,95,16,3.48,ZA,1600294805
Butaritari,3.07,172.79,301.47,71,26,8.95,KI,1600294812
Khatanga,71.97,102.5,280.82,86,51,2.23,RU,1600294820
Leningradskiy,69.38,178.42,276.02,91,100,6.51,RU,1600294828
Bengkulu,-3.8,102.27,296.1,87,17,2.17,ID,1600294828
Ranong,9.97,98.63,299.77,82,100,4.82,TH,1600294829
Arraial do Cabo,-22.97,-42.03,296.15,83,55,8.2,BR,1600294784
Hilo,19.73,-155.09,302.15,62,75,4.6,US,1600294643
Trelew,-43.25,-65.31,292.25,26,91,9.15,AR,1600294829
Rocha,-34.48,-54.33,283.03,94,28,1.84,UY,1600294829
Punta Arenas,-53.15,-70.92,277.15,80,90,6.7,CL,1600294784
Cape Town,-33.93,18.42,286.48,100,40,1.0,ZA,1600294809
Torbay,47.67,-52.73,284.82,66,75,4.6,CA,1600294810
Torbay,47.67,-52.73,284.82,66,75,4.6,CA,1600294810
Belmonte,-15.86,-38.88,297.15,64,75,3.1,BR,1600294830
Sandpoint,48.28,-116.55,300.37,38,1,1.35,US,1600294756
Lakes Entrance,-37.88,147.98,285.37,78,96,1.34,AU,1600294830
Yellowknife,62.46,-114.35,282.04,39,20,2.1,CA,1600294542
Zinder,13.81,8.99,302.74,52,0,4.23,NE,1600294831
Bhisho,-32.85,27.44,283.83,67,4,3.27,ZA,1600294831
Vilhena,-12.74,-60.15,305.15,29,3,2.1,BR,1600294831
Puerto Ayora,-0.74,-90.35,297.15,64,20,9.3,EC,1600294636
Thompson,55.74,-97.86,280.15,39,40,6.7,CA,1600294697
Birkeland,58.33,8.23,284.82,87,0,2.1,NO,1600294832
Busselton,-33.65,115.33,282.04,67,0,4.81,AU,1600294801
Ancud,-41.87,-73.82,283.49,93,100,11.74,CL,1600294832
Albany,42.6,-73.97,292.59,55,90,8.2,US,1600294788
Ushuaia,-54.8,-68.3,278.15,44,75,5.7,AR,1600294793
Longyearbyen,78.22,15.64,273.15,93,90,7.7,SJ,1600294832
Quisao,14.43,121.33,301.15,83,75,2.1,PH,1600294833
Busselton,-33.65,115.33,282.04,67,0,4.81,AU,1600294801
Hobart,-42.88,147.33,280.93,65,40,3.6,AU,1600294660
Mahébourg,-20.41,57.7,292.15,72,75,3.1,MU,1600294833
Qaanaaq,77.48,-69.36,265.69,78,0,2.09,GL,1600294800
Bethel,41.37,-73.41,292.04,68,0,3.73,US,1600294624
Skellefteå,64.75,20.95,282.04,81,93,9.8,SE,1600294834
Rikitea,-23.12,-134.97,296.25,77,2,3.33,PF,1600294787
Vaini,-21.2,-175.2,296.15,69,75,5.1,TO,1600294787
Rikitea,-23.12,-134.97,296.25,77,2,3.33,PF,1600294787
Chui,-33.7,-53.46,285.29,91,39,2.81,UY,1600294815
Rikitea,-23.12,-134.97,296.25,77,2,3.33,PF,1600294787
Barrow,71.29,-156.79,279.15,87,90,5.1,US,1600294792
Saint Paul Harbor,57.79,-152.41,284.6,80,100,2.71,US,1600294795
Barrow,71.29,-156.79,279.15,87,90,5.1,US,1600294792
Punta Arenas,-53.15,-70.92,277.15,80,90,6.7,CL,1600294784
Sitka,57.05,-135.33,287.15,67,20,2.6,US,1600294802
Port Alfred,-33.59,26.89,288.43,71,9,7.84,ZA,1600294835
Saskylakh,71.92,114.08,281.27,81,98,3.05,RU,1600294794
Qaanaaq,77.48,-69.36,265.69,78,0,2.09,GL,1600294800
Barrow,71.29,-156.79,279.15,87,90,5.1,US,1600294792
Rikitea,-23.12,-134.97,296.25,77,2,3.33,PF,1600294787
Grand Gaube,-20.01,57.66,292.04,75,75,0.89,MU,1600294836
Hamilton,39.18,-84.53,299.15,44,1,2.6,US,1600294618
Mossamedes,-15.2,12.15,290.06,72,0,4.08,AO,1600294836
Hithadhoo,-0.6,73.08,301.13,76,78,5.75,MV,1600294789
Ushuaia,-54.8,-68.3,278.15,44,75,5.7,AR,1600294793
Vaini,-21.2,-175.2,296.15,69,75,5.1,TO,1600294787
Port Alfred,-33.59,26.89,288.43,71,9,7.84,ZA,1600294835
Busselton,-33.65,115.33,282.04,67,0,4.81,AU,1600294801
Punta Arenas,-53.15,-70.92,277.15,80,90,6.7,CL,1600294784
Rikitea,-23.12,-134.97,296.25,77,2,3.33,PF,1600294787
Sungai Raya,0.7,108.9,298.06,87,100,3.67,ID,1600294837
Vila Franca do Campo,37.72,-25.43,291.15,82,20,4.6,PT,1600294838
Cidreira,-30.18,-50.21,290.38,95,100,3.71,BR,1600294795
Wuwei,37.93,102.64,286.37,38,81,2.2,CN,1600294838
Longyearbyen,78.22,15.64,273.15,93,90,7.7,SJ,1600294832
Port Elizabeth,-33.92,25.57,287.15,82,3,8.2,ZA,1600294788
Issenye,-2.0,34.33,295.2,63,63,1.54,TZ,1600294838
Gizo Government Station,-8.1,156.84,302.01,73,75,4.65,SB,1600294839
Labuan,5.28,115.24,297.15,94,40,2.6,MY,1600294839
Ushuaia,-54.8,-68.3,278.15,44,75,5.7,AR,1600294793
Tasiilaq,65.61,-37.64,277.15,94,100,4.6,GL,1600294819
Toamasina,-18.17,49.38,290.15,93,40,1.0,MG,1600294839
Puerto Ayora,-0.74,-90.35,297.15,64,20,9.3,EC,1600294636
Albany,42.6,-73.97,292.59,55,90,8.2,US,1600294788
Rikitea,-23.12,-134.97,296.25,77,2,3.33,PF,1600294787
Mwinilunga,-11.74,24.43,289.55,87,50,1.37,ZM,1600294840
Jamestown,42.1,-79.24,294.82,60,1,3.6,US,1600294827
Punta Arenas,-53.15,-70.92,277.15,80,90,6.7,CL,1600294784
Kapaa,22.08,-159.32,303.15,62,1,5.7,US,1600294794
Ponta do Sol,32.67,-17.1,294.15,60,40,2.1,PT,1600294821
Bambous Virieux,-20.34,57.76,292.15,72,75,3.1,MU,1600294814
Faya,18.39,42.45,293.15,72,44,1.63,SA,1600294841
Bredasdorp,-34.53,20.04,285.15,87,16,3.1,ZA,1600294841
Rong Kwang,18.34,100.32,296.84,92,31,0.54,TH,1600294841
Bredasdorp,-34.53,20.04,285.15,87,16,3.1,ZA,1600294841
Kibaya,-5.3,36.57,287.06,94,2,2.82,TZ,1600294842
Punta Arenas,-53.15,-70.92,277.15,80,90,6.7,CL,1600294784
Port-Gentil,-0.72,8.78,298.15,88,90,7.14,GA,1600294842
Touros,-5.2,-35.46,298.15,83,20,4.1,BR,1600294842
La Ronge,55.1,-105.28,280.15,42,75,3.1,CA,1600294843
Carnarvon,-24.87,113.63,290.15,59,0,7.2,AU,1600294797
Sitka,57.05,-135.33,287.15,67,20,2.6,US,1600294802
Balkanabat,39.51,54.37,293.45,51,0,4.11,TM,1600294843
Ahipara,-35.17,173.17,288.79,71,9,3.63,NZ,1600294843
Lagunas,-5.23,-75.68,303.03,59,100,1.3,PE,1600294844
Puerto Ayora,-0.74,-90.35,297.15,64,20,9.3,EC,1600294636
Constitución,-35.33,-72.42,287.18,77,6,4.99,CL,1600294844
Pedro II,-4.42,-41.46,301.99,31,81,2.97,BR,1600294844
Butaritari,3.07,172.79,301.47,71,26,8.95,KI,1600294812
Naze,28.37,129.48,301.15,88,75,6.2,JP,1600294787
Jalu,29.03,21.55,300.46,54,8,4.91,LY,1600294845
Guerrero Negro,27.98,-114.06,304.79,34,9,6.32,MX,1600294845
Punta Arenas,-53.15,-70.92,277.15,80,90,6.7,CL,1600294784
Bluff,-46.6,168.33,282.59,87,100,7.15,NZ,1600294807
Ushuaia,-54.8,-68.3,278.15,44,75,5.7,AR,1600294793
Cape Town,-33.93,18.42,286.48,100,40,1.0,ZA,1600294809
Hobart,-42.88,147.33,280.93,65,40,3.6,AU,1600294660
Mandiana,10.63,-8.68,296.98,88,100,0.92,GN,1600294811
Oistins,13.07,-59.53,303.15,70,20,5.1,BB,1600294846
Broken Hill,-31.95,141.43,288.15,25,89,4.1,AU,1600294846
Bredasdorp,-34.53,20.04,285.15,87,16,3.1,ZA,1600294841
Hilo,19.73,-155.09,302.15,62,75,4.6,US,1600294643
Punta Arenas,-53.15,-70.92,277.15,80,90,6.7,CL,1600294784
Vestmannaeyjar,63.44,-20.27,283.99,92,100,11.25,IS,1600294846
Bethel,41.37,-73.41,292.04,68,0,3.73,US,1600294624
Provideniya,64.38,-173.3,283.15,81,75,2.0,RU,1600294847
Ushuaia,-54.8,-68.3,278.15,44,75,5.7,AR,1600294793
Te Anau,-45.42,167.72,281.39,88,100,3.46,NZ,1600294803
Kapaa,22.08,-159.32,303.15,62,1,5.7,US,1600294794
Swan River,52.11,-101.27,282.67,45,85,4.23,CA,1600294847
Hilo,19.73,-155.09,302.15,62,75,4.6,US,1600294643
Mar del Plata,-38.0,-57.56,283.15,81,40,4.6,AR,1600294813
Norman Wells,65.28,-126.83,282.15,61,90,3.6,CA,1600294823
Dhidhdhoo,6.88,73.1,300.6,77,77,4.69,MV,1600294848
Vallenar,-28.57,-70.76,295.44,30,0,2.02,CL,1600294848
Vestmannaeyjar,63.44,-20.27,283.99,92,100,11.25,IS,1600294846
Beira,-19.84,34.84,296.15,94,20,3.1,MZ,1600294848
Chui,-33.7,-53.46,285.29,91,39,2.81,UY,1600294815
Hermanus,-34.42,19.23,284.26,95,16,3.48,ZA,1600294805
Atuona,-9.8,-139.03,298.85,75,0,9.27,PF,1600294849
Touros,-5.2,-35.46,298.15,83,20,4.1,BR,1600294842
Ponta do Sol,32.67,-17.1,294.15,60,40,2.1,PT,1600294821
Samarai,-10.62,150.67,299.73,85,79,7.1,PG,1600294849
Maple Creek,49.92,-109.48,292.93,37,13,4.0,CA,1600294850
Ushuaia,-54.8,-68.3,278.15,44,75,5.7,AR,1600294793
Sylvan Lake,52.32,-114.09,292.15,45,20,2.1,CA,1600294850
Ushuaia,-54.8,-68.3,278.15,44,75,5.7,AR,1600294793
Mataura,-46.19,168.86,282.59,87,100,7.15,NZ,1600294826
Sarangani,5.4,125.46,299.57,82,100,4.56,PH,1600294850
Lebu,-37.62,-73.65,284.59,80,28,2.19,CL,1600294827
Hobart,-42.88,147.33,280.93,65,40,3.6,AU,1600294660
Albany,42.6,-73.97,292.59,55,90,8.2,US,1600294788
Tual,-5.67,132.75,299.53,84,92,7.71,ID,1600294851
Ancud,-41.87,-73.82,283.49,93,100,11.74,CL,1600294832
Battle Creek,42.32,-85.18,298.15,61,1,5.1,US,1600294851
Rikitea,-23.12,-134.97,296.25,77,2,3.33,PF,1600294787
Dikson,73.51,80.55,278.36,97,88,0.59,RU,1600294827
Hamilton,39.18,-84.53,299.15,44,1,2.6,US,1600294618
Tual,-5.67,132.75,299.53,84,92,7.71,ID,1600294851
Barrow,71.29,-156.79,279.15,87,90,5.1,US,1600294792
Tuktoyaktuk,69.45,-133.04,281.15,65,75,6.2,CA,1600294798
Busselton,-33.65,115.33,282.04,67,0,4.81,AU,1600294801
Pisco,-13.7,-76.22,292.15,72,61,10.3,PE,1600294852
Rikitea,-23.12,-134.97,296.25,77,2,3.33,PF,1600294787
Hilo,19.73,-155.09,302.15,62,75,4.6,US,1600294643
Hermanus,-34.42,19.23,284.26,95,16,3.48,ZA,1600294805
Pangnirtung,66.15,-65.71,276.15,69,20,2.6,CA,1600294853
Porto-Novo,6.5,2.6,299.15,88,40,5.1,BJ,1600294775
Shenjiamen,29.96,122.3,298.39,94,100,3.59,CN,1600294854
Mataura,-46.19,168.86,282.59,87,100,7.15,NZ,1600294826
Yaring,6.87,101.37,299.02,86,100,4.34,TH,1600294854
Egvekinot,66.32,-179.17,278.32,84,100,6.22,RU,1600294854
Punta Arenas,-53.15,-70.92,277.15,80,90,6.7,CL,1600294784
Ceuta,35.89,-5.31,296.15,88,75,3.1,ES,1600294855
Mataura,-46.19,168.86,282.59,87,100,7.15,NZ,1600294826
Mataura,-46.19,168.86,282.59,87,100,7.15,NZ,1600294826
Bengkulu,-3.8,102.27,296.1,87,17,2.17,ID,1600294828
Maceió,-9.67,-35.74,297.15,73,20,3.6,BR,1600294640
Liverpool,53.41,-2.98,288.15,87,75,2.6,GB,1600294744
Faanui,-16.48,-151.75,298.97,81,3,7.65,PF,1600294855
Ilulissat,69.22,-51.1,276.15,93,99,1.5,GL,1600294788
Bluff,-46.6,168.33,282.59,87,100,7.15,NZ,1600294807
Balgazyn,51.0,95.2,280.09,60,19,1.2,RU,1600294856
Belaya Gora,68.53,146.42,278.5,87,100,2.4,RU,1600294856
Hong Kong,22.29,114.16,302.04,88,47,8.15,HK,1600294811
Busselton,-33.65,115.33,282.04,67,0,4.81,AU,1600294801
Formosa,-26.18,-58.18,291.15,93,75,1.0,AR,1600294567
Barrow,71.29,-156.79,279.15,87,90,5.1,US,1600294792
Vaini,-21.2,-175.2,296.15,69,75,5.1,TO,1600294787
Kavieng,-2.57,150.8,302.0,78,21,7.08,PG,1600294820
Kamaishi,39.27,141.88,294.66,80,98,1.87,JP,1600294857
Kahului,20.89,-156.47,305.15,46,20,7.7,US,1600294857
Saskylakh,71.92,114.08,281.27,81,98,3.05,RU,1600294794
Mataura,-46.19,168.86,282.59,87,100,7.15,NZ,1600294826
Kruisfontein,-34.0,24.73,287.59,69,64,1.79,ZA,1600294858
Qaanaaq,77.48,-69.36,265.69,78,0,2.09,GL,1600294800
Rikitea,-23.12,-134.97,296.25,77,2,3.33,PF,1600294787
Lethem,3.38,-59.8,301.2,67,100,1.47,GY,1600294858
New Norfolk,-42.78,147.06,280.93,68,89,1.34,AU,1600294796
Albany,42.6,-73.97,292.59,55,90,8.2,US,1600294788
Bluff,-46.6,168.33,282.59,87,100,7.15,NZ,1600294807
Kavieng,-2.57,150.8,302.0,78,21,7.08,PG,1600294820
Mar del Plata,-38.0,-57.56,283.15,81,40,4.6,AR,1600294813
Hermanus,-34.42,19.23,284.26,95,16,3.48,ZA,1600294805
Atuona,-9.8,-139.03,298.85,75,0,9.27,PF,1600294849
Rikitea,-23.12,-134.97,296.25,77,2,3.33,PF,1600294787
Ushuaia,-54.8,-68.3,278.15,44,75,5.7,AR,1600294793
Ushuaia,-54.8,-68.3,278.15,44,75,5.7,AR,1600294793
New Norfolk,-42.78,147.06,280.93,68,89,1.34,AU,1600294796
Santa Rosa,14.31,121.11,301.15,83,75,2.1,PH,1600294859
Pesochnoye,58.01,39.18,281.21,81,91,3.91,RU,1600294860
Qaanaaq,77.48,-69.36,265.69,78,0,2.09,GL,1600294800
Rikitea,-23.12,-134.97,296.25,77,2,3.33,PF,1600294787
Punta Arenas,-53.15,-70.92,277.15,80,90,6.7,CL,1600294784
Kaitangata,-46.28,169.85,284.71,70,100,8.13,NZ,1600294860
Abalak,58.13,68.59,280.73,95,95,3.3,RU,1600294860
Maniitsoq,65.42,-52.9,276.65,86,100,11.63,GL,1600294861
Menongue,-14.66,17.69,289.15,31,0,0.92,AO,1600294861
Seoul,37.57,126.98,294.15,94,90,1.26,KR,1600295231
Hobart,-42.88,147.33,280.93,65,40,3.6,AU,1600294660
Provideniya,64.38,-173.3,283.15,81,75,2.0,RU,1600294847
Flinders,-34.58,150.86,291.48,77,10,2.68,AU,1600294861
Port Alfred,-33.59,26.89,288.43,71,9,7.84,ZA,1600294835
Provideniya,64.38,-173.3,283.15,81,75,2.0,RU,1600294847
Tuktoyaktuk,69.45,-133.04,281.15,65,75,6.2,CA,1600294798
Kutum,14.2,24.67,299.03,46,23,4.28,SD,1600294862
Barrow,71.29,-156.79,279.15,87,90,5.1,US,1600294792
Lerwick,60.15,-1.15,282.15,76,96,3.6,GB,1600294862
Carnarvon,-24.87,113.63,290.15,59,0,7.2,AU,1600294797
Port Alfred,-33.59,26.89,288.43,71,9,7.84,ZA,1600294835
Mataura,-46.19,168.86,282.59,87,100,7.15,NZ,1600294826
Matagami,49.75,-77.63,281.15,93,90,7.2,CA,1600294863
Rikitea,-23.12,-134.97,296.25,77,2,3.33,PF,1600294787
Ketchikan,55.34,-131.65,290.15,67,1,5.1,US,1600294863
Puerto Ayora,-0.74,-90.35,297.15,64,20,9.3,EC,1600294636
Rabo de Peixe,37.8,-25.58,291.15,82,20,4.6,PT,1600294864
East London,-33.02,27.91,289.59,57,0,6.29,ZA,1600294864
Tezu,27.92,96.17,296.52,86,100,1.21,IN,1600294864
Norrtälje,59.76,18.7,284.26,80,99,2.24,SE,1600294864
Cape Town,-33.93,18.42,286.48,100,40,1.0,ZA,1600294809
Adrar,20.5,-10.07,311.04,12,14,5.26,MR,1600294728
Hilo,19.73,-155.09,302.15,62,75,4.6,US,1600294643
Cape Town,-33.93,18.42,286.48,100,40,1.0,ZA,1600294809
Rikitea,-23.12,-134.97,296.25,77,2,3.33,PF,1600294787
Esperance,-33.87,121.9,283.15,100,75,9.8,AU,1600294865
Ahipara,-35.17,173.17,288.79,71,9,3.63,NZ,1600294843
Līsakovsk,52.54,62.49,282.75,91,100,5.61,KZ,1600294866
Alofi,-19.06,-169.92,297.15,78,75,8.2,NU,1600294817
Dubuque,42.48,-90.87,296.48,68,90,5.7,US,1600294866
George Town,5.41,100.34,299.15,94,20,2.1,MY,1600294579
Khatanga,71.97,102.5,280.82,86,51,2.23,RU,1600294820
Denpasar,-8.65,115.22,297.15,100,20,2.1,ID,1600295382
Ushuaia,-54.8,-68.3,278.15,44,75,5.7,AR,1600294793
Ponta do Sol,32.67,-17.1,294.15,60,40,2.1,PT,1600294821
Dali,25.7,100.18,289.9,86,67,1.02,CN,1600294867
Butaritari,3.07,172.79,301.47,71,26,8.95,KI,1600294812
Chui,-33.7,-53.46,285.29,91,39,2.81,UY,1600294815
Ponta do Sol,32.67,-17.1,294.15,60,40,2.1,PT,1600294821
Busselton,-33.65,115.33,282.04,67,0,4.81,AU,1600294801
Pevek,69.7,170.31,276.23,89,71,5.9,RU,1600294868
Punta Arenas,-53.15,-70.92,277.15,80,90,6.7,CL,1600294784
Bredasdorp,-34.53,20.04,285.15,87,16,3.1,ZA,1600294841
Kiryat Gat,31.61,34.76,300.93,84,0,0.45,IL,1600294817
Saint Paul Harbor,57.79,-152.41,284.6,80,100,2.71,US,1600294795
Necochea,-38.55,-58.74,280.37,92,1,1.34,AR,1600294869
Punta Arenas,-53.15,-70.92,277.15,80,90,6.7,CL,1600294784
Saint-Pierre,-21.34,55.48,292.15,55,20,3.6,RE,1600294869
Beloha,-25.17,45.05,291.4,95,0,2.58,MG,1600294870
Rikitea,-23.12,-134.97,296.25,77,2,3.33,PF,1600294787
Port Elizabeth,-33.92,25.57,287.15,82,3,8.2,ZA,1600294788
Houma,29.6,-90.72,302.15,70,75,5.1,US,1600294870
Dwārka,22.24,68.97,301.15,80,100,5.29,IN,1600294871
Port Elizabeth,-33.92,25.57,287.15,82,3,8.2,ZA,1600294788
Kanigoro,-8.13,112.22,293.45,86,44,0.8,ID,1600294872
Bambanglipuro,-7.95,110.28,294.83,90,5,1.11,ID,1600294872
Deep River,46.1,-77.5,296.48,60,75,4.6,CA,1600294872
Cabo San Lucas,22.89,-109.91,305.37,59,40,6.7,MX,1600294594
East London,-33.02,27.91,289.59,57,0,6.29,ZA,1600294864
Río Gallegos,-51.62,-69.22,280.15,52,40,7.2,AR,1600294873
Bahía de Caráquez,-0.6,-80.42,299.15,74,20,6.2,EC,1600294591
Zhigansk,66.77,123.37,277.91,81,17,2.58,RU,1600294873
Jamestown,42.1,-79.24,294.82,60,1,3.6,US,1600294827
Khatanga,71.97,102.5,280.82,86,51,2.23,RU,1600294820
Puerto Escondido,15.85,-97.07,303.15,62,75,3.6,MX,1600294874
Hong Kong,22.29,114.16,302.04,88,47,8.15,HK,1600294811
New Norfolk,-42.78,147.06,280.93,68,89,1.34,AU,1600294796
Mount Gambier,-37.83,140.77,284.15,100,90,4.1,AU,1600294808
Port Elizabeth,-33.92,25.57,287.15,82,3,8.2,ZA,1600294788
Mataura,-46.19,168.86,282.59,87,100,7.15,NZ,1600294826
Saint-Pierre,-21.34,55.48,292.15,55,20,3.6,RE,1600294869
Saint-Philippe,-21.36,55.77,292.15,55,20,3.6,RE,1600294810
Banda Aceh,5.56,95.32,299.4,74,85,6.0,ID,1600294875
Vaini,-21.2,-175.2,297.15,64,75,6.2,TO,1600295388
Comodoro Rivadavia,-45.87,-67.5,288.15,44,75,8.2,AR,1600294876
Rikitea,-23.12,-134.97,296.25,77,2,3.33,PF,1600295388
Ponta do Sol,32.67,-17.1,294.15,60,40,2.1,PT,1600294821
Pevek,69.7,170.31,276.23,89,71,5.9,RU,1600294868
Hilo,19.73,-155.09,302.15,62,75,4.6,US,1600294643
Ushuaia,-54.8,-68.3,278.15,44,75,5.7,AR,1600294793
Tasiilaq,65.61,-37.64,277.15,94,100,4.6,GL,1600294819
Demba,-5.51,22.27,295.11,89,36,0.69,CD,1600294877
Levokumskoye,44.82,44.66,288.09,37,0,2.52,RU,1600294877
Hobart,-42.88,147.33,280.93,65,40,3.6,AU,1600294660
Albany,42.6,-73.97,292.59,55,90,8.2,US,1600295333
Bluff,-46.6,168.33,282.59,87,100,7.15,NZ,1600294807
San Policarpo,12.18,125.51,298.72,91,100,6.72,PH,1600294878
Kapit,2.02,112.93,295.27,93,99,0.75,MY,1600294795
Chui,-33.7,-53.46,285.29,91,39,2.81,UY,1600294815
Hong Kong,22.29,114.16,302.04,88,47,8.15,HK,1600294811
Dingle,11.0,122.67,297.5,93,100,3.18,PH,1600294878
Cabedelo,-6.98,-34.83,297.15,88,40,5.1,BR,1600294878
Arraial do Cabo,-22.97,-42.03,296.15,78,55,5.7,BR,1600295393
Saldanha,-33.01,17.94,287.15,87,55,2.6,ZA,1600294879
Ola,59.58,151.28,283.05,73,100,1.19,RU,1600294879
Port Elizabeth,-33.92,25.57,287.15,82,3,8.2,ZA,1600295333
New Norfolk,-42.78,147.06,280.93,68,89,1.34,AU,1600294796
Punta Arenas,-53.15,-70.92,277.15,86,75,5.7,CL,1600295394
Nānākuli,21.39,-158.15,303.71,55,1,4.6,US,1600294880
Ponta do Sol,32.67,-17.1,294.15,60,40,2.1,PT,1600294821
Albany,42.6,-73.97,292.59,55,90,8.2,US,1600295333
Niğde,37.83,34.75,286.13,52,0,0.62,TR,1600294880
Ushuaia,-54.8,-68.3,277.15,60,40,9.8,AR,1600295394
Taman',45.21,36.72,290.15,67,0,3.0,RU,1600294881
Saint Anthony,45.02,-93.22,293.71,48,40,9.3,US,1600294823
Pacific Grove,36.62,-121.92,297.04,68,1,4.6,US,1600294668
Castro,-24.79,-50.01,293.36,55,77,2.17,BR,1600294811
Hilo,19.73,-155.09,302.15,62,75,4.6,US,1600294643
Rikitea,-23.12,-134.97,296.25,77,2,3.33,PF,1600295388
East London,-33.02,27.91,289.59,57,0,6.29,ZA,1600294864
Sesheke,-17.48,24.3,300.15,28,63,0.5,ZM,1600294882
Caravelas,-17.71,-39.25,294.52,76,6,2.17,BR,1600294882
Busselton,-33.65,115.33,282.04,67,0,4.81,AU,1600294801
Bathsheba,13.22,-59.52,303.15,70,20,5.1,BB,1600294882
Thompson,55.74,-97.86,280.15,39,40,6.7,CA,1600294697
Solwezi,-12.17,26.39,290.28,51,0,1.29,ZM,1600294883
Pāsighāt,28.07,95.33,297.12,88,100,0.92,IN,1600294883
Atuona,-9.8,-139.03,298.85,75,0,9.27,PF,1600294849
Narsaq,60.92,-46.05,280.15,87,100,2.6,GL,1600294883
Bredasdorp,-34.53,20.04,285.15,87,16,3.1,ZA,1600294841
Puerto Ayora,-0.74,-90.35,297.15,64,20,9.3,EC,1600294636
Norman Wells,65.28,-126.83,282.15,61,90,3.6,CA,1600294823
Escárcega,18.61,-90.75,301.63,85,93,2.46,MX,1600294884
Ushuaia,-54.8,-68.3,277.15,60,40,9.8,AR,1600295394
Port Alfred,-33.59,26.89,288.43,71,9,7.84,ZA,1600294835
Mt. Pleasant,32.79,-79.86,298.15,100,90,2.67,US,1600294884
Barrow,71.29,-156.79,279.15,87,90,5.1,US,1600295397
Arraial do Cabo,-22.97,-42.03,296.15,78,55,5.7,BR,1600295393
Verkhoyansk,67.54,133.38,278.57,78,1,1.06,RU,1600294885
Koumac,-20.57,164.28,296.42,69,21,2.42,NC,1600294885
Rikitea,-23.12,-134.97,296.25,77,2,3.33,PF,1600295388
Bambous Virieux,-20.34,57.76,292.15,72,75,3.1,MU,1600294814
Dutlwe,-23.98,23.9,290.59,22,1,7.6,BW,1600295331
Geraldton,-28.77,114.6,284.15,71,0,5.7,AU,1600294886
Hilo,19.73,-155.09,302.15,62,75,4.6,US,1600294643
Albany,42.6,-73.97,292.59,55,90,8.2,US,1600295333
Rikitea,-23.12,-134.97,296.25,77,2,3.33,PF,1600295388
Bahir Dar,11.59,37.39,289.7,86,93,1.71,ET,1600294886
Hobart,-42.88,147.33,281.15,65,40,9.3,AU,1600295263
Salou,41.08,1.14,295.93,88,30,2.1,ES,1600294887
Bluff,-46.6,168.33,282.59,87,100,7.15,NZ,1600294807
Thompson,55.74,-97.86,280.15,39,40,6.7,CA,1600294697
Atuona,-9.8,-139.03,298.85,75,0,9.27,PF,1600294849
Barrow,71.29,-156.79,279.15,87,90,5.1,US,1600295397
Ushuaia,-54.8,-68.3,277.15,60,40,9.8,AR,1600295394
Ilulissat,69.22,-51.1,276.15,93,99,1.5,GL,1600295399
Kahului,20.89,-156.47,305.15,46,20,7.7,US,1600294857
Meulaboh,4.14,96.13,297.43,90,26,1.78,ID,1600294888
Ushuaia,-54.8,-68.3,277.15,60,40,9.8,AR,1600295394
East London,-33.02,27.91,289.59,57,0,6.29,ZA,1600294864
Bluff,-46.6,168.33,282.59,87,100,7.15,NZ,1600294807
Kangaba,11.93,-8.42,296.7,90,100,2.84,ML,1600294888
Ilulissat,69.22,-51.1,276.15,93,99,1.5,GL,1600295399
Cape Town,-33.93,18.42,286.48,100,40,1.0,ZA,1600294809
Saint George,37.1,-113.58,310.15,7,1,2.1,US,1600294804
Ushuaia,-54.8,-68.3,277.15,60,40,9.8,AR,1600295394
Rikitea,-23.12,-134.97,296.25,77,2,3.33,PF,1600295388
Avera,33.19,-82.53,294.15,94,90,5.1,US,1600294889
Labuhan,-6.88,112.21,297.56,79,1,3.39,ID,1600294890
Nālūt,30.33,10.85,295.71,50,0,6.48,LY,1600294890
Provideniya,64.38,-173.3,283.15,81,75,2.0,RU,1600294847
Ambilobe,-13.2,49.05,293.74,73,20,2.03,MG,1600294890
Shimoda,34.67,138.95,293.71,94,80,1.36,JP,1600294890
Cape Town,-33.93,18.42,286.48,100,40,1.0,ZA,1600294809
Cabo San Lucas,22.89,-109.91,305.37,59,40,6.7,MX,1600294594
Vaini,-21.2,-175.2,297.15,64,75,6.2,TO,1600295388
Kapaa,22.08,-159.32,302.15,66,40,4.6,US,1600295402
Hong Kong,22.29,114.16,302.04,88,47,8.15,HK,1600294811
Bethel,41.37,-73.41,292.04,68,0,3.73,US,1600294624
Ushuaia,-54.8,-68.3,277.15,60,40,9.8,AR,1600295394
Hilo,19.73,-155.09,302.15,62,75,4.6,US,1600294643
Punta Arenas,-53.15,-70.92,277.15,86,75,5.7,CL,1600295394
Thompson,55.74,-97.86,280.15,39,40,6.7,CA,1600294697
Montague,42.54,-72.54,293.71,62,0,3.13,US,1600294775
Saint Paul Harbor,57.79,-152.41,284.56,78,100,3.57,US,1600295403
Morehead,37.27,-87.18,304.15,65,90,2.69,US,1600294892
Pak Phanang,8.35,100.2,299.55,79,100,2.07,TH,1600294892
Raudeberg,61.99,5.14,279.82,86,62,4.83,NO,1600294893
Hermanus,-34.42,19.23,284.26,95,16,3.48,ZA,1600294805
Bosanska Krupa,44.88,16.15,291.31,75,100,0.96,BA,1600294893
Albany,42.6,-73.97,292.59,55,90,8.2,US,1600295333
Codajás,-3.84,-62.06,303.87,50,80,0.84,BR,1600294893
Longyearbyen,78.22,15.64,273.15,93,90,7.7,SJ,1600294832
Nemuro,43.32,145.57,291.98,91,100,6.77,JP,1600294894
Saint-Philippe,-21.36,55.77,292.15,55,20,3.6,RE,1600294810
Cherskiy,68.75,161.3,278.12,83,98,6.62,RU,1600294816
Ushuaia,-54.8,-68.3,277.15,60,40,9.8,AR,1600295394
Hermanus,-34.42,19.23,284.26,95,16,3.48,ZA,1600294805
Ushuaia,-54.8,-68.3,277.15,60,40,9.8,AR,1600295394
Bambous Virieux,-20.34,57.76,292.15,72,75,3.1,MU,1600294814
Arraial do Cabo,-22.97,-42.03,296.15,78,55,5.7,BR,1600295393
Dikson,73.51,80.55,278.36,97,88,0.59,RU,1600294827
Teya,60.38,92.63,282.78,78,100,1.55,RU,1600294895
Arraial do Cabo,-22.97,-42.03,296.15,78,55,5.7,BR,1600295393
Castro,-24.79,-50.01,293.36,55,77,2.17,BR,1600294811
Sinnamary,5.38,-52.95,299.56,86,100,4.87,GF,1600294896
Kaitangata,-46.28,169.85,284.71,70,100,8.13,NZ,1600294860
New Norfolk,-42.78,147.06,280.93,64,79,0.89,AU,1600295407
Faya,18.39,42.45,293.15,72,44,1.63,SA,1600294841
Puerto Ayora,-0.74,-90.35,297.15,64,20,9.3,EC,1600294636
Port Alfred,-33.59,26.89,288.43,71,9,7.84,ZA,1600294835
Kaitangata,-46.28,169.85,284.71,70,100,8.13,NZ,1600294860
Ponta do Sol,32.67,-17.1,294.15,60,40,2.1,PT,1600294821
Vanimo,-2.67,141.3,300.1,78,89,2.43,PG,1600294897
Yellowknife,62.46,-114.35,282.15,42,20,1.5,CA,1600295408
Forsytheganj,52.63,29.73,290.24,71,99,4.25,BY,1600294897
Puerto Ayora,-0.74,-90.35,297.15,64,20,9.3,EC,1600294636
Waipawa,-41.41,175.52,288.15,67,100,10.3,NZ,1600294898
New Norfolk,-42.78,147.06,280.93,64,79,0.89,AU,1600295407
Balkanabat,39.51,54.37,293.45,51,0,4.11,TM,1600294843
Khatanga,71.97,102.5,280.82,86,51,2.23,RU,1600294820
Pahrump,36.21,-115.98,312.59,9,0,1.79,US,1600294898
Longyearbyen,78.22,15.64,273.15,93,90,7.7,SJ,1600294832
Cape Town,-33.93,18.42,286.48,100,40,1.0,ZA,1600294809
Kichera,55.94,110.1,278.93,77,14,0.62,RU,1600294899
Arrondissement du Havre,49.58,0.33,291.15,88,90,7.7,FR,1600294899
Bengkulu,-3.8,102.27,296.1,87,17,2.17,ID,1600294828
Arrecife,28.96,-13.55,299.15,65,100,3.6,ES,1600294899
Longyearbyen,78.22,15.64,273.15,93,90,7.7,SJ,1600294832
Paján,-1.57,-80.42,299.45,61,87,2.55,EC,1600294900
Jamestown,42.1,-79.24,294.82,60,1,3.6,US,1600294827
Narsaq,60.92,-46.05,280.15,87,100,2.6,GL,1600294883
Sayyan,15.17,44.32,291.49,27,0,3.76,YE,1600294900
Jamestown,42.1,-79.24,294.82,60,1,3.6,US,1600294827
Kurumkan,54.3,110.3,279.31,78,0,0.46,RU,1600294901
East London,-33.02,27.91,289.59,57,0,6.29,ZA,1600294864
Ponta do Sol,32.67,-17.1,294.15,60,40,2.1,PT,1600294821
Moïssala,8.34,17.77,295.69,91,27,0.41,TD,1600294902
Fare,-16.7,-151.02,299.38,78,0,8.02,PF,1600294902
East London,-33.02,27.91,289.59,57,0,6.29,ZA,1600294864
Rikitea,-23.12,-134.97,296.25,77,2,3.33,PF,1600295388
Tabou,4.42,-7.35,297.28,87,98,5.3,CI,1600294903
Vaini,-21.2,-175.2,297.15,64,75,6.2,TO,1600295388
Longyearbyen,78.22,15.64,273.15,93,90,7.7,SJ,1600294832
Vaini,-21.2,-175.2,297.15,64,75,6.2,TO,1600295388
Tuktoyaktuk,69.45,-133.04,281.15,65,75,6.2,CA,1600295412
Hermanus,-34.42,19.23,284.26,95,13,3.45,ZA,1600295412
Vaini,-21.2,-175.2,297.15,64,75,6.2,TO,1600295388
Kapaa,22.08,-159.32,302.15,66,40,4.6,US,1600295402
Hare Bay,48.85,-54.01,286.15,50,75,4.6,CA,1600294904
Tuktoyaktuk,69.45,-133.04,281.15,65,75,6.2,CA,1600295412
Severo-Kuril'sk,50.68,156.12,286.4,90,80,4.39,RU,1600294905
Rikitea,-23.12,-134.97,296.25,77,2,3.33,PF,1600295388
Aripuanã,-9.17,-60.63,306.6,20,3,0.57,BR,1600294906
Sitka,57.05,-135.33,287.15,67,1,2.1,US,1600295413
Butaritari,3.07,172.79,301.45,71,41,8.65,KI,1600295414
Imeni Poliny Osipenko,52.42,136.49,284.01,90,100,5.44,RU,1600294906
Matagalpa,12.93,-85.92,300.15,54,40,0.87,NI,1600294907
Castro,-24.79,-50.01,293.36,55,77,2.17,BR,1600295385
Elk City,35.41,-99.4,302.15,37,40,3.1,US,1600294907
Carnarvon,-24.87,113.63,288.15,62,0,5.1,AU,1600295414
Port Alfred,-33.59,26.89,288.43,71,9,7.84,ZA,1600294835
Barrow,71.29,-156.79,279.15,87,90,5.1,US,1600295397
Lebu,-37.62,-73.65,284.59,80,28,2.19,CL,1600294827
Bredasdorp,-34.53,20.04,285.15,87,16,3.1,ZA,1600294841
Ushuaia,-54.8,-68.3,277.15,60,40,9.8,AR,1600295394
Abilene,32.45,-99.73,303.15,45,20,2.6,US,1600294907
Lagoa,39.05,-27.98,292.01,72,94,7.83,PT,1600294908
Bethel,41.37,-73.41,292.04,68,0,3.73,US,1600294624
Busselton,-33.65,115.33,282.59,66,0,4.66,AU,1600295416
Codrington,-38.27,141.97,284.17,94,100,5.28,AU,1600294909
Puri,19.8,85.85,301.15,94,40,6.02,IN,1600294909
East London,-33.02,27.91,289.59,57,0,6.29,ZA,1600294864
Port Alfred,-33.59,26.89,288.43,71,9,7.84,ZA,1600294835
Vila Velha,-20.33,-40.29,298.15,78,5,4.1,BR,1600295417
Bulgan,48.81,103.53,278.35,80,0,0.63,MN,1600294910
Busselton,-33.65,115.33,282.59,66,0,4.66,AU,1600295416
Paracuru,-3.41,-39.03,299.26,76,3,7.15,BR,1600294910
Port Lincoln,-34.73,135.87,286.86,96,100,7.44,AU,1600294911
Shatalovo,54.33,32.45,288.71,90,100,6.03,RU,1600294911
Albany,42.6,-73.97,292.59,55,90,8.2,US,1600295333
Mayor Pablo Lagerenza,-19.93,-60.77,306.61,24,5,1.91,PY,1600294911
Khatanga,71.97,102.5,280.82,86,51,2.23,RU,1600294820
Rikitea,-23.12,-134.97,296.25,77,2,3.33,PF,1600295388
Ushuaia,-54.8,-68.3,277.15,60,40,9.8,AR,1600295394
Rikitea,-23.12,-134.97,296.25,77,2,3.33,PF,1600295388
Katsuura,35.13,140.3,297.04,100,75,2.6,JP,1600294912
Ushuaia,-54.8,-68.3,277.15,60,40,9.8,AR,1600295394
Ushuaia,-54.8,-68.3,277.15,60,40,9.8,AR,1600295394
São Filipe,14.9,-24.5,300.68,79,0,2.67,CV,1600294912
Vaini,-21.2,-175.2,297.15,64,75,6.2,TO,1600295388
Yerbogachën,61.28,108.01,278.31,81,2,0.64,RU,1600294913
Khatanga,71.97,102.5,280.82,86,51,2.23,RU,1600294820
Kruisfontein,-34.0,24.73,287.59,69,64,1.79,ZA,1600294858
Tuktoyaktuk,69.45,-133.04,281.15,65,75,6.2,CA,1600295412
Hong Kong,22.29,114.16,302.04,87,47,0.45,HK,1600295415
Ahipara,-35.17,173.17,288.79,71,9,3.63,NZ,1600294843
Albany,42.6,-73.97,292.59,55,90,8.2,US,1600295333
Narsaq,60.92,-46.05,280.15,87,100,2.6,GL,1600294883
New Norfolk,-42.78,147.06,280.93,64,79,0.89,AU,1600295407
Bredasdorp,-34.53,20.04,285.15,87,16,3.1,ZA,1600294841
Ribeira Grande,38.52,-28.7,292.3,65,100,6.7,PT,1600295420
Lagoa,39.05,-27.98,292.01,72,94,7.83,PT,1600294908
Kapaa,22.08,-159.32,302.15,66,40,4.6,US,1600295402
Sitka,57.05,-135.33,287.15,67,1,2.1,US,1600295413
San Patricio,19.22,-104.7,305.15,75,75,5.1,MX,1600295421
Cape Town,-33.93,18.42,285.93,100,40,1.0,ZA,1600295420
Ketchikan,55.34,-131.65,290.15,67,1,5.1,US,1600294863
Hasaki,35.73,140.83,296.15,88,75,1.5,JP,1600294915
Rikitea,-23.12,-134.97,296.25,77,2,3.33,PF,1600295388
Busselton,-33.65,115.33,282.59,66,0,4.66,AU,1600295416
Maltahöhe,-24.83,16.98,285.27,34,0,4.56,NA,1600294916
Maraã,-1.83,-65.37,299.9,78,87,0.73,BR,1600294916
Stutterheim,-32.57,27.42,281.56,76,40,1.85,ZA,1600294916
Mar del Plata,-38.0,-57.56,282.15,87,90,4.6,AR,1600295153
Kapaa,22.08,-159.32,302.15,66,40,4.6,US,1600295402
Souillac,-20.52,57.52,292.15,72,75,3.1,MU,1600295422
Narsaq,60.92,-46.05,280.15,87,100,2.6,GL,1600294883
Hofn,64.25,-15.21,282.8,88,100,12.46,IS,1600294785
Hilo,19.73,-155.09,302.15,62,75,4.6,US,1600294643
Khatanga,71.97,102.5,280.69,87,44,2.12,RU,1600295423
Geraldton,-28.77,114.6,284.15,71,0,5.7,AU,1600294886
Marmande,44.5,0.17,295.93,65,0,2.19,FR,1600294917
Bluff,-46.6,168.33,282.04,90,100,7.6,NZ,1600295423
Aklavik,68.22,-135.01,281.15,70,90,3.1,CA,1600294918
Castro,-24.79,-50.01,293.36,55,77,2.17,BR,1600295385
Arman',59.7,150.17,280.09,86,100,3.37,RU,1600294918
Arraial do Cabo,-22.97,-42.03,296.15,78,55,5.7,BR,1600295393
Olinda,-8.01,-34.86,299.15,69,75,6.7,BR,1600294886
Knysna,-34.04,23.05,285.15,87,93,4.1,ZA,1600294919
Mataura,-46.19,168.86,282.59,87,100,7.15,NZ,1600294826
Hermanus,-34.42,19.23,284.26,95,13,3.45,ZA,1600295412
Ilulissat,69.22,-51.1,276.15,93,99,1.5,GL,1600295399
Andenes,69.31,16.12,278.15,86,73,3.6,NO,1600294919
Itarema,-2.92,-39.92,298.94,79,6,7.63,BR,1600294920
Rikitea,-23.12,-134.97,296.25,77,2,3.33,PF,1600295388
Souillac,-20.52,57.52,292.15,72,75,3.1,MU,1600295422
Hilo,19.73,-155.09,302.15,62,75,4.6,US,1600294643
Haines Junction,60.75,-137.51,286.74,37,76,0.46,CA,1600294921
Vaini,-21.2,-175.2,297.15,64,75,6.2,TO,1600295388
Zhicheng,30.3,111.5,292.04,94,100,1.39,CN,1600294922
Kapaa,22.08,-159.32,302.15,66,40,4.6,US,1600295402
Santa Maria,-29.68,-53.81,289.29,97,100,0.87,BR,1600294854
Ribeira Grande,38.52,-28.7,292.3,65,100,6.7,PT,1600295420
Westport,41.14,-73.36,293.15,70,0,0.45,US,1600294922
Ushuaia,-54.8,-68.3,277.15,60,40,9.8,AR,1600295394
Sorong,-0.88,131.25,298.33,86,89,2.92,ID,1600294922
Nome,64.5,-165.41,282.15,87,90,7.2,US,1600294923
Chapais,49.78,-74.85,282.15,93,90,2.1,CA,1600294923
Yar-Sale,66.83,70.83,281.24,85,100,4.64,RU,1600294923
Avarua,-21.21,-159.78,298.15,69,23,5.1,CK,1600295331
Okitipupa,6.5,4.78,296.03,97,100,1.33,NG,1600294924
Thompson,55.74,-97.86,280.15,39,40,6.7,CA,1600295402
Saint-Philippe,-21.36,55.77,292.15,55,20,3.6,RE,1600295427
Punta Arenas,-53.15,-70.92,277.15,86,75,5.7,CL,1600295394
Pangnirtung,66.15,-65.71,276.15,69,20,2.6,CA,1600294853
Port Alfred,-33.59,26.89,288.43,71,9,7.84,ZA,1600294835
Thompson,55.74,-97.86,280.15,39,40,6.7,CA,1600295402
Mar del Plata,-38.0,-57.56,282.15,87,90,4.6,AR,1600295153
Lebu,-37.62,-73.65,283.2,87,38,1.38,CL,1600295428
Ushuaia,-54.8,-68.3,277.15,60,40,9.8,AR,1600295394
Atuona,-9.8,-139.03,298.85,75,0,9.27,PF,1600294849
Ponta do Sol,32.67,-17.1,294.15,60,40,2.1,PT,1600295428
Puerto Ayora,-0.74,-90.35,297.15,64,20,9.3,EC,1600295428
Upernavik,72.79,-56.15,272.55,88,100,2.07,GL,1600295429
Narsaq,60.92,-46.05,280.15,87,100,2.6,GL,1600294883
Punta Arenas,-53.15,-70.92,277.15,86,75,5.7,CL,1600295394
Palestine,31.92,35.2,300.93,78,20,1.5,PS,1600294927
Santa Cruz do Capibaribe,-7.96,-36.2,293.74,80,34,5.46,BR,1600294927
Bredasdorp,-34.53,20.04,285.15,87,16,3.1,ZA,1600294841
Ushuaia,-54.8,-68.3,277.15,60,40,9.8,AR,1600295394
Mataura,-46.19,168.86,282.04,90,100,7.6,NZ,1600295429
Eston,51.15,-108.75,288.15,44,75,5.7,CA,1600294928
Whitley Bay,55.04,-1.45,285.37,81,40,0.5,GB,1600294645
Guerrero Negro,27.98,-114.06,304.79,34,9,6.32,MX,1600294845
Kapaa,22.08,-159.32,302.15,66,40,4.6,US,1600295402
Saint Paul Harbor,57.79,-152.41,284.56,78,100,3.57,US,1600295403
Ushuaia,-54.8,-68.3,277.15,60,40,9.8,AR,1600295394
Iqaluit,63.75,-68.51,275.15,74,75,1.5,CA,1600295298
Rikitea,-23.12,-134.97,296.25,77,2,3.33,PF,1600295388
Sur,22.57,59.53,301.46,63,75,3.53,OM,1600294929
Ushuaia,-54.8,-68.3,277.15,60,40,9.8,AR,1600295394
Promyshlennaya,54.92,85.64,285.15,87,40,1.0,RU,1600294929
Tasiilaq,65.61,-37.64,277.15,94,100,4.6,GL,1600295431
São Lourenço do Sul,-31.37,-51.98,289.06,92,100,0.8,BR,1600294930
Mar del Plata,-38.0,-57.56,282.15,87,90,4.6,AR,1600295153
Atuona,-9.8,-139.03,298.85,75,0,9.27,PF,1600294849
Blackwater,-23.58,148.88,292.28,72,2,4.02,AU,1600294930
Jamestown,42.1,-79.24,294.82,60,1,3.6,US,1600295193
Leningradskiy,69.38,178.42,275.94,91,100,6.82,RU,1600295432
Vila Franca do Campo,37.72,-25.43,291.15,82,20,4.6,PT,1600294838
Khatanga,71.97,102.5,280.69,87,44,2.12,RU,1600295423
Mataura,-46.19,168.86,282.04,90,100,7.6,NZ,1600295429
Hobart,-42.88,147.33,281.15,65,40,9.3,AU,1600295263
Atuona,-9.8,-139.03,298.85,75,0,9.27,PF,1600294849
Kaitangata,-46.28,169.85,284.71,70,100,8.13,NZ,1600294860
Airai,-8.93,125.41,291.58,52,93,0.53,TL,1600295433
Busselton,-33.65,115.33,282.59,66,0,4.66,AU,1600295416
Morro Bay,35.37,-120.85,308.71,12,4,3.58,US,1600294932
Philadelphia,39.95,-75.16,295.37,53,90,3.1,US,1600294829
Khoni,42.32,42.42,294.15,94,37,1.5,GE,1600294932
Shemgang,27.22,90.66,290.11,85,99,0.4,BT,1600294932
Kapaa,22.08,-159.32,302.15,66,40,4.6,US,1600295402
Hilo,19.73,-155.09,301.48,61,75,4.1,US,1600295242
Dunedin,-45.87,170.5,286.54,54,100,7.6,NZ,1600294717
Hobart,-42.88,147.33,281.15,65,40,9.3,AU,1600295263
Lavrentiya,65.58,-171.0,279.28,94,100,0.44,RU,1600294933
Talakan,50.32,130.37,286.36,93,100,4.52,RU,1600294933
Hermanus,-34.42,19.23,284.26,95,13,3.45,ZA,1600295412
Saint-Augustin,51.23,-58.65,283.87,79,95,8.72,CA,1600294933
Beringovskiy,63.05,179.32,281.14,84,100,5.62,RU,1600294934
Qaanaaq,77.48,-69.36,264.71,77,0,2.07,GL,1600295434
Busselton,-33.65,115.33,282.59,66,0,4.66,AU,1600295416
Fairbanks,64.84,-147.72,285.15,76,90,2.1,US,1600294934
Cape Town,-33.93,18.42,285.93,100,40,1.0,ZA,1600295420
Kaitangata,-46.28,169.85,284.71,70,100,8.13,NZ,1600294860
Port Elizabeth,-33.92,25.57,287.15,82,3,8.2,ZA,1600295333
Port Alfred,-33.59,26.89,288.43,71,9,7.84,ZA,1600294835
Lagos,6.58,3.75,297.15,94,75,3.6,NG,1600294920
La Santisima Trinidad,-14.83,-64.9,307.58,24,12,1.69,BO,1600294935
Punta Arenas,-53.15,-70.92,277.15,86,75,5.7,CL,1600295394
Chui,-33.7,-53.46,284.58,93,32,2.69,UY,1600295436
East London,-33.02,27.91,289.59,57,0,6.29,ZA,1600294864
Znamenskoye,57.13,73.83,280.54,77,76,3.83,RU,1600294935
Hermanus,-34.42,19.23,284.26,95,13,3.45,ZA,1600295412
Yasnyy,51.03,59.87,282.4,80,100,11.2,RU,1600294936
Grand Gaube,-20.01,57.66,292.04,75,75,0.89,MU,1600294836
Mpika,-11.83,31.45,292.41,38,1,2.77,ZM,1600294936
Mar del Plata,-38.0,-57.56,282.15,87,90,4.6,AR,1600295153
Delray Beach,26.46,-80.07,303.71,74,40,5.1,US,1600294839
Mayo,38.89,-76.51,295.15,68,1,3.6,US,1600294936
Punta Arenas,-53.15,-70.92,277.15,86,75,5.7,CL,1600295394
Bluff,-46.6,168.33,282.04,90,100,7.6,NZ,1600295423
Longyearbyen,78.22,15.64,273.15,96,90,7.7,SJ,1600295438
Binzhou,37.37,118.02,292.04,74,62,2.43,CN,1600294937
Scutelnici,44.85,26.92,290.93,76,8,0.95,RO,1600294938
Mataura,-46.19,168.86,282.04,90,100,7.6,NZ,1600295429
Dingle,11.0,122.67,297.5,93,100,3.18,PH,1600294878
Richards Bay,-28.78,32.04,293.17,75,93,7.94,ZA,1600294938
Demba,-5.51,22.27,295.11,89,36,0.69,CD,1600294877
Klaksvík,62.23,-6.59,283.15,87,100,6.7,FO,1600294939
Caxias,38.7,-9.28,293.15,88,75,2.1,PT,1600294939
Forest Lake,45.28,-92.99,292.59,53,6,2.24,US,1600294793
Ushuaia,-54.8,-68.3,277.15,60,40,9.8,AR,1600295394
Yichun,47.7,128.9,284.93,99,86,0.91,CN,1600294940
Constitución,-35.33,-72.42,287.18,77,6,4.99,CL,1600294844
George Town,5.41,100.34,299.15,94,20,1.0,MY,1600295412
Rikitea,-23.12,-134.97,296.25,77,2,3.33,PF,1600295388
Gravdal,68.12,13.5,280.15,70,75,1.5,NO,1600294940
Tasiilaq,65.61,-37.64,277.15,94,100,4.6,GL,1600295431
Ushuaia,-54.8,-68.3,277.15,60,40,9.8,AR,1600295394
Lüderitz,-26.65,15.16,287.25,62,0,8.1,NA,1600294941
Brigham City,41.51,-112.02,303.15,9,1,4.33,US,1600294941
Vestmannaeyjar,63.44,-20.27,283.99,92,100,11.25,IS,1600294846
Rikitea,-23.12,-134.97,296.25,77,2,3.33,PF,1600295388
San Patricio,19.22,-104.7,305.15,75,75,5.1,MX,1600295421
Butaritari,3.07,172.79,301.45,71,41,8.65,KI,1600295414
Tyumentsevo,53.32,81.5,285.04,51,100,3.3,RU,1600294871
Narsaq,60.92,-46.05,280.15,87,100,2.6,GL,1600294883
Ushuaia,-54.8,-68.3,277.15,60,40,9.8,AR,1600295394
Atuona,-9.8,-139.03,298.85,75,0,9.27,PF,1600294849
Hermanus,-34.42,19.23,284.26,95,13,3.45,ZA,1600295412
Tornio,65.85,24.15,280.15,93,90,8.2,FI,1600294942
Puerto Escondido,15.85,-97.07,303.15,62,75,3.6,MX,1600294874
Punta Arenas,-53.15,-70.92,277.15,86,75,5.7,CL,1600295394
Ushuaia,-54.8,-68.3,277.15,60,40,9.8,AR,1600295394
Hithadhoo,-0.6,73.08,301.11,76,75,5.56,MV,1600295441
Srednekolymsk,67.45,153.68,277.87,82,99,3.68,RU,1600294943
Faanui,-16.48,-151.75,298.97,81,3,7.65,PF,1600294855
Sur,22.57,59.53,301.46,63,75,3.53,OM,1600294929
Cayenne,4.93,-52.33,297.15,100,100,1.0,GF,1600294943
Jayanca,-6.39,-79.82,295.48,56,9,5.49,PE,1600294943
Mataura,-46.19,168.86,282.04,90,100,7.6,NZ,1600295429
Hithadhoo,-0.6,73.08,301.11,76,75,5.56,MV,1600295441
Talnakh,69.49,88.4,284.15,66,0,3.0,RU,1600294944
Bluff,-46.6,168.33,282.04,90,100,7.6,NZ,1600295423
Butaritari,3.07,172.79,301.45,71,41,8.65,KI,1600295414
Butaritari,3.07,172.79,301.45,71,41,8.65,KI,1600295414
Cherskiy,68.75,161.3,278.49,79,98,6.5,RU,1600295443
Ushuaia,-54.8,-68.3,277.15,60,40,9.8,AR,1600295394
Haines Junction,60.75,-137.51,286.74,37,76,0.46,CA,1600294921
Cidreira,-30.18,-50.21,290.2,96,100,3.07,BR,1600295443
Nikolskoye,59.7,30.79,290.15,88,90,2.0,RU,1600295444
Puerto Ayora,-0.74,-90.35,297.15,64,20,9.3,EC,1600295428
Matara,5.95,80.54,298.61,89,91,4.54,LK,1600294945
Mataura,-46.19,168.86,282.04,90,100,7.6,NZ,1600295429
Ilulissat,69.22,-51.1,276.15,93,99,1.5,GL,1600295399
Busselton,-33.65,115.33,282.59,66,0,4.66,AU,1600295416
Mar del Plata,-38.0,-57.56,282.15,87,90,4.6,AR,1600295153
Mar del Plata,-38.0,-57.56,282.15,87,90,4.6,AR,1600295153
Yellowknife,62.46,-114.35,282.15,42,20,1.5,CA,1600295408
Terrace Bay,48.78,-87.1,283.15,53,40,6.2,CA,1600294946
Hermanus,-34.42,19.23,284.26,95,13,3.45,ZA,1600295412
Bredasdorp,-34.53,20.04,285.15,87,16,3.1,ZA,1600295445
Butaritari,3.07,172.79,301.45,71,41,8.65,KI,1600295414
Kavaratti,10.57,72.64,300.48,82,77,7.45,IN,1600294947
Hobart,-42.88,147.33,281.15,65,40,9.3,AU,1600295263
Punta Arenas,-53.15,-70.92,277.15,86,75,5.7,CL,1600295394
Bayonet Point,28.33,-82.68,303.15,69,100,6.41,US,1600294947
Qaanaaq,77.48,-69.36,264.71,77,0,2.07,GL,1600295434
Mataura,-46.19,168.86,282.04,90,100,7.6,NZ,1600295429
Castro,-24.79,-50.01,293.36,55,77,2.17,BR,1600295385
Ugoofaaru,5.67,73.0,300.67,75,14,3.34,MV,1600294948
Atuona,-9.8,-139.03,298.85,75,0,9.27,PF,1600294849
Alta Floresta,-9.88,-56.09,304.79,18,7,1.21,BR,1600294948
Xapuri,-10.65,-68.5,306.15,55,20,1.5,BR,1600294949
Saskylakh,71.92,114.08,282.33,77,98,3.31,RU,1600295447
Hilo,19.73,-155.09,301.48,61,75,4.1,US,1600295242
Port Alfred,-33.59,26.89,288.51,74,12,7.93,ZA,1600295447
Albany,42.6,-73.97,292.59,55,90,8.2,US,1600295333
Hermanus,-34.42,19.23,284.26,95,13,3.45,ZA,1600295412
La Santisima Trinidad,-14.83,-64.9,307.58,24,12,1.69,BO,1600294935
Hobyo,5.35,48.53,298.32,85,0,10.94,SO,1600294950
Alyangula,-13.85,136.42,294.15,100,51,5.01,AU,1600294950
Talnakh,69.49,88.4,284.15,66,0,3.0,RU,1600294944
East London,-33.02,27.91,289.59,57,0,6.29,ZA,1600294864
Bethel,41.37,-73.41,292.15,63,1,3.1,US,1600295254
Ponta do Sol,32.67,-17.1,294.15,60,40,2.1,PT,1600295428
Wanning,18.8,110.4,299.1,91,65,3.71,CN,1600294951
Rybachiy,48.71,44.74,281.15,52,0,1.0,RU,1600294951
Labuhan,-6.88,112.21,297.56,79,1,3.39,ID,1600294890
Albany,42.6,-73.97,292.59,55,90,8.2,US,1600295333
Albany,42.6,-73.97,292.59,55,90,8.2,US,1600295333
Homer,59.64,-151.55,287.15,82,90,2.01,US,1600294951
Bethel,41.37,-73.41,292.15,63,1,3.1,US,1600295254
Daru,-9.08,143.21,299.22,88,100,7.58,PG,1600294952
Ushuaia,-54.8,-68.3,277.15,60,40,9.8,AR,1600295394
Mar del Plata,-38.0,-57.56,282.15,87,90,4.6,AR,1600295153
Albany,42.6,-73.97,292.59,55,90,8.2,US,1600295333
Rikitea,-23.12,-134.97,296.25,77,2,3.33,PF,1600295388
Beloha,-25.17,45.05,291.4,95,0,2.58,MG,1600294870
Busselton,-33.65,115.33,282.59,66,0,4.66,AU,1600295416
Rikitea,-23.12,-134.97,296.25,77,2,3.33,PF,1600295388
Kapaa,22.08,-159.32,302.15,66,40,4.6,US,1600295402
Santa Rosalía,27.32,-112.28,307.99,29,42,6.54,MX,1600294953
New Norfolk,-42.78,147.06,280.93,64,79,0.89,AU,1600295407
